,city,city_ascii,lat,lng,pop,country,iso2,iso3,province,Clean_City,Clean_Code
0,Qal eh-ye Now,Qal eh-ye,34.98300013,63.13329964,2997.0,Afghanistan,AF,AFG,Badghis,QAL EHYE,AF
1,Chaghcharan,Chaghcharan,34.5167011,65.25000063,15000.0,Afghanistan,AF,AFG,Ghor,CHAGHCHARAN,AF
2,Lashkar Gah,Lashkar Gah,31.58299802,64.35999955,201546.0,Afghanistan,AF,AFG,Hilmand,LASHKAR GAH,AF
3,Zaranj,Zaranj,31.11200108,61.88699752,49851.0,Afghanistan,AF,AFG,Nimroz,ZARANJ,AF
4,Tarin Kowt,Tarin Kowt,32.63329815,65.86669865,10000.0,Afghanistan,AF,AFG,Uruzgan,TARIN KOWT,AF
5,Zareh Sharan,Zareh Sharan,32.85000016,68.41670453,13737.0,Afghanistan,AF,AFG,Paktika,ZAREH SHARAN,AF
6,Asadabad,Asadabad,34.86600004,71.15000459,48400.0,Afghanistan,AF,AFG,Kunar,ASADABAD,AF
7,Taloqan,Taloqan,36.72999904,69.54000364,64256.0,Afghanistan,AF,AFG,Takhar,TALOQAN,AF
8,Mahmud-E Eraqi,Mahmud-E Eraqi,35.01669608,69.33330065,7407.0,Afghanistan,AF,AFG,Kapisa,MAHMUDE ERAQI,AF
9,Mehtar Lam,Mehtar Lam,34.65000001,70.16670052,17345.0,Afghanistan,AF,AFG,Laghman,MEHTAR LAM,AF
10,Baraki Barak,Baraki Barak,33.9667021,68.96670354,22305.0,Afghanistan,AF,AFG,Logar,BARAKI BARAK,AF
11,Aybak,Aybak,36.26100015,68.04000051,24000.0,Afghanistan,AF,AFG,Samangan,AYBAK,AF
12,Mayda Shahr,Mayda Shahr,34.45000209,68.79999663,35008.0,Afghanistan,AF,AFG,Wardak,MAYDA SHAHR,AF
13,Karokh,Karokh,34.48676963,62.59177608,14388.5,Afghanistan,AF,AFG,Hirat,KAROKH,AF
14,Sheberghan,Sheberghan,36.65798077,65.73830237,74441.0,Afghanistan,AF,AFG,Jawzjan,SHEBERGHAN,AF
15,Pol-e Khomri,Pol-e Khomri,35.95107302,68.70111894,41029.0,Afghanistan,AF,AFG,Baghlan,POLE KHOMRI,AF
16,Balkh,Balkh,36.75011985,66.89973018,147426.0,Afghanistan,AF,AFG,Balkh,BALKH,AF
17,Meymaneh,Meymaneh,35.93022158,64.77009273,199795.0,Afghanistan,AF,AFG,Faryab,MEYMANEH,AF
18,Andkhvoy,Andkhvoy,36.93165916,65.10149369,50469.0,Afghanistan,AF,AFG,Faryab,ANDKHVOY,AF
19,Qalat,Qalat,32.11226341,66.8867594,12191.0,Afghanistan,AF,AFG,Zabul,QALAT,AF
20,Ghazni,Ghazni,33.56331179,68.41782873,129892.5,Afghanistan,AF,AFG,Ghazni,GHAZNI,AF
21,Feyzabad,Feyzabad,37.12976076,70.57924719,52490.0,Afghanistan,AF,AFG,Badakhshan,FEYZABAD,AF
22,Kondoz,Kondoz,36.72795066,68.87252966,210855.5,Afghanistan,AF,AFG,Kunduz,KONDOZ,AF
23,Jalalabad,Jalalabad,34.44152692,70.43610347,401697.0,Afghanistan,AF,AFG,Nangarhar,JALALABAD,AF
24,Charikar,Charikar,35.01826174,69.16791215,53676.0,Afghanistan,AF,AFG,Parwan,CHARIKAR,AF
25,Gardiz,Gardiz,33.60005373,69.21462764,82680.5,Afghanistan,AF,AFG,Paktya,GARDIZ,AF
26,Bamian,Bamian,34.82106447,67.52103593,61863.0,Afghanistan,AF,AFG,Bamyan,BAMIAN,AF
27,Baghlan,Baghlan,36.13933026,68.69925858,163598.5,Afghanistan,AF,AFG,Baghlan,BAGHLAN,AF
28,Farah,Farah,32.39172955,62.09681921,58604.0,Afghanistan,AF,AFG,Farah,FARAH,AF
29,Herat,Herat,34.33000917,62.16999304,439232.5,Afghanistan,AF,AFG,Hirat,HERAT,AF
30,Mazar-e Sharif,Mazar-e Sharif,36.69999371,67.10002803,365432.5,Afghanistan,AF,AFG,Balkh,MAZARE SHARIF,AF
31,Kandahar,Kandahar,31.61002016,65.69494584,613871.0,Afghanistan,AF,AFG,Kandahar,KANDAHAR,AF
32,Kabul,Kabul,34.51669029,69.18326005,3160266.0,Afghanistan,AF,AFG,Kabul,KABUL,AF
33,Mariehamn,Mariehamn,60.09699618,19.94900447,10682.0,Aland,AX,ALD,Finström,MARIEHAMN,AX
34,Kruje,Kruje,41.51899817,19.79700359,21286.0,Albania,AL,ALB,Durrës,KRUJE,AL
35,Fier,Fier,40.73000402,19.5730026,69747.5,Albania,AL,ALB,Fier,FIER,AL
36,Lushnje,Lushnje,40.94000113,19.71600348,41469.0,Albania,AL,ALB,Fier,LUSHNJE,AL
37,Puke,Puke,42.03330302,19.88330448,6495.0,Albania,AL,ALB,Shkodër,PUKE,AL
38,Bajram Curri,Bajram Curri,42.33330007,20.08330257,7967.0,Albania,AL,ALB,Kukës,BAJRAM CURRI,AL
39,Kukes,Kukes,42.08300107,20.43399653,17832.0,Albania,AL,ALB,Kukës,KUKES,AL
40,Sarande,Sarande,39.87700212,19.99999859,15147.0,Albania,AL,ALB,Vlorë,SARANDE,AL
41,Erseke,Erseke,40.33330213,20.68329651,7890.0,Albania,AL,ALB,Korçë,ERSEKE,AL
42,Pogradec,Pogradec,40.89999612,20.66400062,35000.0,Albania,AL,ALB,Korçë,POGRADEC,AL
43,Korce,Korce,40.61667601,20.76666353,58259.0,Albania,AL,ALB,Korçë,KORCE,AL
44,Berat,Berat,40.70999705,19.97199958,46866.0,Albania,AL,ALB,Berat,BERAT,AL
45,Corovode,Corovode,40.51670403,20.23329663,14046.0,Albania,AL,ALB,Berat,COROVODE,AL
46,Gramsh,Gramsh,40.86669601,20.19999652,11556.0,Albania,AL,ALB,Elbasan,GRAMSH,AL
47,Librazhd,Librazhd,41.20000211,20.3667036,12691.0,Albania,AL,ALB,Elbasan,LIBRAZHD,AL
48,Tepelene,Tepelene,40.2832981,20.03329854,11955.0,Albania,AL,ALB,Gjirokastër,TEPELENE,AL
49,Permet,Permet,40.23399605,20.35199756,10686.0,Albania,AL,ALB,Gjirokastër,PERMET,AL
50,Gjirokaster,Gjirokaster,40.07899809,20.14900256,23437.0,Albania,AL,ALB,Gjirokastër,GJIROKASTER,AL
51,Peshkopi,Peshkopi,41.6833021,20.43330349,14848.0,Albania,AL,ALB,Dibër,PESHKOPI,AL
52,Burrel,Burrel,41.62599908,20.01600053,15405.0,Albania,AL,ALB,Dibër,BURREL,AL
53,Lezhe,Lezhe,41.78799914,19.65400254,18695.0,Albania,AL,ALB,Lezhë,LEZHE,AL
54,Rreshen,Rreshen,41.78330106,19.81670459,10064.0,Albania,AL,ALB,Lezhë,RRESHEN,AL
55,Vlore,Vlore,40.47736005,19.49823075,89508.5,Albania,AL,ALB,Vlorë,VLORE,AL
56,Elbasan,Elbasan,41.12150677,20.08382808,132956.5,Albania,AL,ALB,Elbasan,ELBASAN,AL
57,Durres,Durres,41.3177997,19.44820797,132233.0,Albania,AL,ALB,Durrës,DURRES,AL
58,Shkoder,Shkoder,42.06845156,19.51884965,122006.0,Albania,AL,ALB,Shkodër,SHKODER,AL
59,Tirana,Tirana,41.32754071,19.81888301,658318.0,Albania,AL,ALB,Durrës,TIRANA,AL
60,Jijel,Jijel,36.82199703,5.76600356,148000.0,Algeria,DZ,DZA,Jijel,JIJEL,DZ
61,Tizi-Ouzou,Tizi-Ouzou,36.80000111,4.033332556,144000.0,Algeria,DZ,DZA,Tizi Ouzou,TIZIOUZOU,DZ
62,Bordj Bou Arreridj,Bordj Bou Arreridj,36.05900401,4.629996466,134500.0,Algeria,DZ,DZA,Bordj Bou Arréridj,BORDJ BOU ARRERIDJ,DZ
63,M'sila,M'sila,35.7000031,4.545000584,125000.0,Algeria,DZ,DZA,M'Sila,MSILA,DZ
64,Guelma,Guelma,36.46600213,7.427997486,123590.0,Algeria,DZ,DZA,Guelma,GUELMA,DZ
65,Oum el Bouaghi,Oum el Bouaghi,35.84999715,7.149996522,100821.0,Algeria,DZ,DZA,Oum el Bouaghi,OUM EL BOUAGHI,DZ
66,Timimoun,Timimoun,29.23652163,0.269998737,26568.0,Algeria,DZ,DZA,Adrar,TIMIMOUN,DZ
67,Sidi bel Abbes,Sidi bel Abbes,35.19034426,-0.639971559,200186.5,Algeria,DZ,DZA,Sidi Bel Abbès,SIDI BEL ABBES,DZ
68,Tlimcen,Tlimcen,34.89041424,-1.32000757,181059.0,Algeria,DZ,DZA,Tlemcen,TLIMCEN,DZ
69,Beni Ounif,Beni Ounif,32.04926984,-1.251381268,5628.0,Algeria,DZ,DZA,Béchar,BENI OUNIF,DZ
70,Abadla,Abadla,31.01708478,-2.733306317,14364.0,Algeria,DZ,DZA,Béchar,ABADLA,DZ
71,Sefra,Sefra,32.76041506,-0.579949383,51118.0,Algeria,DZ,DZA,Naâma,SEFRA,DZ
72,Skikda,Skikda,36.88042198,6.899981647,193941.5,Algeria,DZ,DZA,Skikda,SKIKDA,DZ
73,Djanet,Djanet,24.5529057,9.482252969,666.0,Algeria,DZ,DZA,Illizi,DJANET,DZ
74,I-n-Amenas,I-n-Amenas,28.0503408,9.550000772,216.0,Algeria,DZ,DZA,Illizi,INAMENAS,DZ
75,In Amguel,In Amguel,23.69394004,5.164738727,3030.0,Algeria,DZ,DZA,Tamanghasset,IN AMGUEL,DZ
76,El Bayadh,El Bayadh,33.6903583,1.009953571,67413.0,Algeria,DZ,DZA,El Bayadh,EL BAYADH,DZ
77,El Oued,El Oued,33.37040367,6.859984089,177497.0,Algeria,DZ,DZA,Biskra,EL OUED,DZ
78,Hassi Messaoud,Hassi Messaoud,31.70234011,6.054451862,18124.0,Algeria,DZ,DZA,Ouargla,HASSI MESSAOUD,DZ
79,Chlef,Chlef,36.17041363,1.319960489,449167.0,Algeria,DZ,DZA,Chlef,CHLEF,DZ
80,Mascara,Mascara,35.40040895,0.14003251,108230.0,Algeria,DZ,DZA,Mascara,MASCARA,DZ
81,Mostaganem,Mostaganem,35.940376,0.089983885,159177.0,Algeria,DZ,DZA,Mostaganem,MOSTAGANEM,DZ
82,Saida,Saida,34.84039146,0.14003251,134855.0,Algeria,DZ,DZA,Saïda,SAIDA,DZ
83,Tiarat,Tiarat,35.38043601,1.319960489,184195.0,Algeria,DZ,DZA,Tiaret,TIARAT,DZ
84,Bejaia,Bejaia,36.76037762,5.070015827,274520.0,Algeria,DZ,DZA,Béjaïa,BEJAIA,DZ
85,Blida,Blida,36.4203467,2.829997517,388174.0,Algeria,DZ,DZA,Blida,BLIDA,DZ
86,Bouira,Bouira,36.38047833,3.900009724,110144.0,Algeria,DZ,DZA,Bouira,BOUIRA,DZ
87,Medea,Medea,36.27040753,2.770001179,145863.5,Algeria,DZ,DZA,Médéa,MEDEA,DZ
88,Souk Ahras,Souk Ahras,36.29038047,7.949995075,134947.0,Algeria,DZ,DZA,Souk Ahras,SOUK AHRAS,DZ
89,Tebessa,Tebessa,35.41043418,8.120010537,171742.0,Algeria,DZ,DZA,Tébessa,TEBESSA,DZ
90,Adrar,Adrar,27.86999005,-0.289967083,56910.0,Algeria,DZ,DZA,Adrar,ADRAR,DZ
91,Reggane,Reggane,26.69998395,0.166645873,22351.5,Algeria,DZ,DZA,Adrar,REGGANE,DZ
92,Bechar,Bechar,31.61110537,-2.230003704,142415.5,Algeria,DZ,DZA,Béchar,BECHAR,DZ
93,Tindouf,Tindouf,27.67418805,-8.147782025,18270.0,Algeria,DZ,DZA,Tindouf,TINDOUF,DZ
94,Illizi,Illizi,26.48335634,8.466604369,7293.0,Algeria,DZ,DZA,Illizi,ILLIZI,DZ
95,Arak,Arak,25.2799931,3.749993041,423251.0,Algeria,DZ,DZA,Tamanghasset,ARAK,DZ
96,I-n-Salah,I-n-Salah,27.21664492,2.466608845,28632.0,Algeria,DZ,DZA,Tamanghasset,INSALAH,DZ
97,El Golea,El Golea,30.56662132,2.883327595,32049.0,Algeria,DZ,DZA,Ghardaïa,EL GOLEA,DZ
98,Laghouat,Laghouat,33.80998924,2.880020303,108279.0,Algeria,DZ,DZA,Laghouat,LAGHOUAT,DZ
99,Touggourt,Touggourt,33.0999809,6.05998124,91499.0,Algeria,DZ,DZA,Ouargla,TOUGGOURT,DZ
100,Ouargla,Ouargla,31.96997235,5.340025186,176271.0,Algeria,DZ,DZA,Ouargla,OUARGLA,DZ
101,Biskra,Biskra,34.85997683,5.73002722,202103.0,Algeria,DZ,DZA,Biskra,BISKRA,DZ
102,Djelfa,Djelfa,34.67998781,3.250023558,170901.0,Algeria,DZ,DZA,Djelfa,DJELFA,DZ
103,Setif,Setif,36.18002545,5.399969847,274744.0,Algeria,DZ,DZA,Sétif,SETIF,DZ
104,Batna,Batna,35.56995933,6.170000365,269467.0,Algeria,DZ,DZA,Batna,BATNA,DZ
105,Annaba,Annaba,36.92000612,7.759980834,355047.0,Algeria,DZ,DZA,Annaba,ANNABA,DZ
106,Constantine,Constantine,36.35998863,6.599948281,527638.0,Algeria,DZ,DZA,Constantine,CONSTANTINE,DZ
107,Oran,Oran,35.71000246,-0.61997278,721992.0,Algeria,DZ,DZA,Oran,ORAN,DZ
108,Tamanrasset,Tamanrasset,22.78500327,5.522804727,71808.0,Algeria,DZ,DZA,Tamanghasset,TAMANRASSET,DZ
109,Ghardaia,Ghardaia,32.48999229,3.669997923,125480.0,Algeria,DZ,DZA,Ghardaïa,GHARDAIA,DZ
110,Algiers,Algiers,36.7630648,3.05055253,2665831.5,Algeria,DZ,DZA,Alger,ALGIERS,DZ
111,Pago Pago,Pago Pago,-14.2766105,-170.7066451,12038.0,American Samoa,AS,ASM,,PAGO PAGO,AS
112,Andorra,Andorra,42.50000144,1.516485961,38127.0,Andorra,AD,AND,,ANDORRA,AD
113,Mucusso,Mucusso,-18.01953449,21.42999914,100.0,Angola,AO,AGO,Cuando Cubango,MUCUSSO,AO
114,Lucapa,Lucapa,-8.419603659,20.74001542,25578.0,Angola,AO,AGO,Lunda Norte,LUCAPA,AO
115,Capenda-Camulemba,Capenda-Camulemba,-9.4195943,18.43002722,79842.5,Angola,AO,AGO,Lunda Norte,CAPENDACAMULEMBA,AO
116,Saurimo,Saurimo,-9.659579652,20.39001094,40907.0,Angola,AO,AGO,Lunda Sul,SAURIMO,AO
117,Muconda,Muconda,-10.59962563,21.31998002,2324.0,Angola,AO,AGO,Lunda Sul,MUCONDA,AO
118,Cacolo,Cacolo,-10.14962726,19.2600024,984.0,Angola,AO,AGO,Lunda Sul,CACOLO,AO
119,Caxito,Caxito,-8.579542217,13.65998246,15665.5,Angola,AO,AGO,Bengo,CAXITO,AO
120,Camabatela,Camabatela,-8.189591859,15.37000728,12731.0,Angola,AO,AGO,Cuanza Norte,CAMABATELA,AO
121,Ndalatando,Ndalatando,-9.299549948,14.90998368,8144.0,Angola,AO,AGO,Cuanza Norte,NDALATANDO,AO
122,Quibala,Quibala,-10.72959186,14.97995357,5248.5,Angola,AO,AGO,Cuanza Sul,QUIBALA,AO
123,Calulo,Calulo,-9.999610577,14.90001013,795.0,Angola,AO,AGO,Cuanza Sul,CALULO,AO
124,Waku Kungo,Waku Kungo,-11.35952757,15.1199967,11519.5,Angola,AO,AGO,Cuanza Sul,WAKU KUNGO,AO
125,Songo,Songo,-7.349591452,14.84998734,10579.0,Angola,AO,AGO,Uíge,SONGO,AO
126,Mbanza-Congo,Mbanza-Congo,-6.269605694,14.23999874,42201.0,Angola,AO,AGO,Zaire,MBANZACONGO,AO
127,Nzeto,Nzeto,-7.229598776,12.86003129,19705.5,Angola,AO,AGO,Zaire,NZETO,AO
128,Soyo,Soyo,-6.129614239,12.36998368,65329.0,Angola,AO,AGO,Zaire,SOYO,AO
129,Cabinda,Cabinda,-5.55962319,12.18999467,78905.5,Angola,AO,AGO,Cabinda,CABINDA,AO
130,Calucinga,Calucinga,-11.31958169,16.19998246,531.0,Angola,AO,AGO,Bié,CALUCINGA,AO
131,Camacupa,Camacupa,-12.01959064,17.46998246,19489.0,Angola,AO,AGO,Bié,CAMACUPA,AO
132,Cubal,Cubal,-13.03958006,14.23999874,4837.0,Angola,AO,AGO,Benguela,CUBAL,AO
133,Mavinga,Mavinga,-15.7895414,20.36003861,30000.0,Angola,AO,AGO,Cuando Cubango,MAVINGA,AO
134,Cuito Caunavale,Cuito Caunavale,-15.15960569,19.16998205,149.0,Angola,AO,AGO,Cuando Cubango,CUITO CAUNAVALE,AO
135,Luiana,Luiana,-17.36954832,22.99998083,150.0,Angola,AO,AGO,Cuando Cubango,LUIANA,AO
136,Ondjiva,Ondjiva,-17.06961831,15.73003699,8748.0,Angola,AO,AGO,Cunene,ONDJIVA,AO
137,Chitado,Chitado,-17.31962889,13.92001827,468.5,Angola,AO,AGO,Cunene,CHITADO,AO
138,Chibemba,Chibemba,-15.74959552,14.0800085,1502.0,Angola,AO,AGO,Huíla,CHIBEMBA,AO
139,Chibia,Chibia,-15.1896297,13.69000647,1411.0,Angola,AO,AGO,Huíla,CHIBIA,AO
140,Quipungo,Quipungo,-14.82954832,14.55000565,186.0,Angola,AO,AGO,Huíla,QUIPUNGO,AO
141,Luau,Luau,-10.7095414,22.23000199,9964.0,Angola,AO,AGO,Moxico,LUAU,AO
142,Cangamba,Cangamba,-13.69959145,19.86001745,1307.0,Angola,AO,AGO,Moxico,CANGAMBA,AO
143,Lumbala Nguimbo,Lumbala Nguimbo,-14.09961871,21.44002437,25.0,Angola,AO,AGO,Moxico,LUMBALA NGUIMBO,AO
144,Cazombo,Cazombo,-11.88957273,22.90003861,298.0,Angola,AO,AGO,Moxico,CAZOMBO,AO
145,Dundo,Dundo,-7.380028871,20.82998409,11985.0,Angola,AO,AGO,Lunda Norte,DUNDO,AO
146,Ambriz,Ambriz,-7.85498696,13.12502803,17000.0,Angola,AO,AGO,Bengo,AMBRIZ,AO
147,Dondo,Dondo,-9.690017071,14.43001298,2353.0,Angola,AO,AGO,Cuanza Norte,DONDO,AO
148,Sumbe,Sumbe,-11.21002765,13.8499967,29638.5,Angola,AO,AGO,Cuanza Sul,SUMBE,AO
149,Uige,Uige,-7.620014222,15.04997514,56787.5,Angola,AO,AGO,Uíge,UIGE,AO
150,Kuito,Kuito,-12.38003375,16.93998897,113955.0,Angola,AO,AGO,Bié,KUITO,AO
151,Lobito,Lobito,-12.37000853,13.54123002,170733.0,Angola,AO,AGO,Benguela,LOBITO,AO
152,Xangongo,Xangongo,-16.74002602,14.96998002,447.0,Angola,AO,AGO,Cunene,XANGONGO,AO
153,Luena,Luena,-11.79004393,19.90001501,17276.5,Angola,AO,AGO,Moxico,LUENA,AO
154,Tômbua,Tombua,-15.80003172,11.85998897,40000.0,Angola,AO,AGO,Namibe,TOMBUA,AO
155,Malanje,Malanje,-9.540000388,16.34002559,106451.0,Angola,AO,AGO,Malanje,MALANJE,AO
156,Benguela,Benguela,-12.57826455,13.40723303,142017.0,Angola,AO,AGO,Benguela,BENGUELA,AO
157,Lubango,Lubango,-14.91000853,13.49001868,114086.5,Angola,AO,AGO,Huíla,LUBANGO,AO
158,Namibe,Namibe,-15.19004311,12.16002234,128130.5,Angola,AO,AGO,Namibe,NAMIBE,AO
159,Menongue,Menongue,-14.66661253,17.69999426,13030.0,Angola,AO,AGO,Cuando Cubango,MENONGUE,AO
160,Huambo,Huambo,-12.74998533,15.76000932,986000.0,Angola,AO,AGO,Huambo,HUAMBO,AO
161,Luanda,Luanda,-8.838286114,13.23442704,3562086.0,Angola,AO,AGO,Luanda,LUANDA,AO
162,Artigas Base,Artigas Base,-62.17388669,-58.86386407,34.5,Antarctica,AQ,ATA,,ARTIGAS BASE,AQ
163,Capitan Arturo Prat Station,Capitan Arturo Prat Station,-62.49950682,-59.68331852,41.0,Antarctica,AQ,ATA,,CAPITAN ARTURO PRAT STATION,AQ
164,Marambio Station,Vicecomodoro Marambio Station,-64.23288939,-56.6500153,102.5,Antarctica,AQ,ATA,,VICECOMODORO MARAMBIO STATION,AQ
165,Zucchelli Station,Terra Nova Bay,-74.61919259,164.2190271,60.0,Antarctica,AQ,ATA,,TERRA NOVA BAY,AQ
166,Rothera Station,Rothera Station,-67.5647756,-68.12354055,76.0,Antarctica,AQ,ATA,,ROTHERA STATION,AQ
167,Palmer Station,Palmer Station,-64.76241335,-64.0468756,30.5,Antarctica,AQ,ATA,,PALMER STATION,AQ
168,Base Presidente Montalva,Teniente Rodolfo Marsh Station,-62.18274357,-58.90765233,115.0,Antarctica,AQ,ATA,,TENIENTE RODOLFO MARSH STATION,AQ
169,Carlini Station,Teniente Jubany Station,-62.22414386,-58.65047599,40.0,Antarctica,AQ,ATA,,TENIENTE JUBANY STATION,AQ
170,King Sejong Station,King Sejong Station,-62.2248534,-58.77159876,53.5,Antarctica,AQ,ATA,,KING SEJONG STATION,AQ
171,Great Wall Station,Great Wall Station,-62.21631997,-58.9666956,26.0,Antarctica,AQ,ATA,,GREAT WALL STATION,AQ
172,Escudero Base,Escudero Station,-62.19496251,-58.95266582,20.0,Antarctica,AQ,ATA,,ESCUDERO STATION,AQ
173,Elephant Island,"Elephant Island, South Shetland Islands",-61.99958901,-57.99998458,3.0,Antarctica,AQ,ATA,,ELEPHANT ISLAND SOUTH SHETLAND ISLANDS,AQ
174,Scott Base,Scott Base,-77.84693819,166.7491023,49.5,Antarctica,AQ,ATA,,SCOTT BASE,AQ
175,McMurdo Station,McMurdo Station,-77.73228239,166.8694157,600.0,Antarctica,AQ,ATA,,MCMURDO STATION,AQ
176,Zhongshan Station,Zhongshan Station,-69.43406299,76.33929808,42.5,Antarctica,AQ,ATA,,ZHONGSHAN STATION,AQ
177,Vostok,Vostok,-78.46628416,106.8000337,19.0,Antarctica,AQ,ATA,,VOSTOK,AQ
178,Peter I Island,Peter I Island,-68.83286701,90.49999508,0.5,Antarctica,AQ,ATA,,PETER I ISLAND,AQ
179,Mirny Station,Mirny Station,-66.57552952,93.00628846,114.5,Antarctica,AQ,ATA,,MIRNY STATION,AQ
180,Mawson Station,Mawson Station,-67.61452032,62.87500073,40.0,Antarctica,AQ,ATA,,MAWSON STATION,AQ
181,Davis Station,Davis Station,-68.77767439,78.14073509,45.0,Antarctica,AQ,ATA,,DAVIS STATION,AQ
182,Concordia Research Station,Concordia Research Station,-74.66630939,124.1670357,15.0,Antarctica,AQ,ATA,,CONCORDIA RESEARCH STATION,AQ
183,Casey Station,Casey Station,-66.28608614,110.536214,125.0,Antarctica,AQ,ATA,,CASEY STATION,AQ
184,Amundsen–Scott South Pole Station,Amundsen–Scott South Pole Station,-89.98289386,139.2669926,125.0,Antarctica,AQ,ATA,,AMUNDSEN SCOTT SOUTH POLE STATION,AQ
185,Wasa Station,Wasa Station,-73.0496122,-13.41671106,5.0,Antarctica,AQ,ATA,,WASA STATION,AQ
186,Troll Station,Troll Station,-72.01629026,2.533323119,25.5,Antarctica,AQ,ATA,,TROLL STATION,AQ
187,Svea Station,Svea Station,-74.58290363,-11.21669031,5.0,Antarctica,AQ,ATA,,SVEA STATION,AQ
188,Novolazarevskaya Station,Novolazarevskaya Station,-71.30123475,-11.8502129,35.0,Antarctica,AQ,ATA,,NOVOLAZAREVSKAYA STATION,AQ
189,Neumayer Station III,Neumayer,-70.89039668,-7.838438004,40.0,Antarctica,AQ,ATA,,NEUMAYER,AQ
190,Maitri Station,Maitri Station,-70.7821796,11.7304584,33.0,Antarctica,AQ,ATA,,MAITRI STATION,AQ
191,Halley Station,Halley Station,-76.09226319,-26.4741567,43.0,Antarctica,AQ,ATA,,HALLEY STATION,AQ
192,Belgrano Station,General Belgrano Station,-77.86632078,-34.61668319,57.0,Antarctica,AQ,ATA,,GENERAL BELGRANO STATION,AQ
193,Camp Sobral,Doctor Sobral,-81.17908472,-40.50153152,20.0,Antarctica,AQ,ATA,,DOCTOR SOBRAL,AQ
194,Aboa Station,Aboa Station,-75.04959349,-13.41671106,15.0,Antarctica,AQ,ATA,,ABOA STATION,AQ
195,San Martín Station,San Martín Station,-68.1163216,-67.0999976,19.0,Antarctica,AQ,ATA,,SAN MARTIN STATION,AQ
196,Gen. O'Higgins Station,General Bernado O'Higgins Station,-63.32841823,-57.88959352,30.0,Antarctica,AQ,ATA,,GENERAL BERNADO OHIGGINS STATION,AQ
197,Esperanza Station,Esperanza Station,-63.37532865,-57.02590151,152.5,Antarctica,AQ,ATA,,ESPERANZA STATION,AQ
198,Orcadas Station,Orcadas Station,-60.7328963,-44.73330082,29.5,Antarctica,AQ,ATA,,ORCADAS STATION,AQ
199,Signy Research Station,Signy Island,-60.63130815,-45.60070332,4.0,Antarctica,AQ,ATA,,SIGNY ISLAND,AQ
200,Dumont d'Urville Station,Dumont d'Urville Station,-66.77505091,139.9636836,75.0,Antarctica,AQ,ATA,,DUMONT DURVILLE STATION,AQ
201,Showa Station,Showa Station,-69.03039249,39.7460831,50.0,Antarctica,AQ,ATA,,SHOWA STATION,AQ
202,Saint John's,Saint John's,17.11803652,-61.85003382,29862.5,Antigua and Barbuda,AG,ATG,,SAINT JOHNS,AG
203,28 de Noviembre,28 de Noviembre,-51.65003986,-72.30001612,5300.0,Argentina,AR,ARG,Santa Cruz,28 DE NOVIEMBRE,AR
204,Gobernador Gregores,Gobernador Gregores,-48.76659829,-70.25001205,2519.0,Argentina,AR,ARG,Santa Cruz,GOBERNADOR GREGORES,AR
205,Comondante Luis Piedrabuena,Comondante Luis Piedrabuena,-49.97454865,-68.90347273,410.0,Argentina,AR,ARG,Santa Cruz,COMONDANTE LUIS PIEDRABUENA,AR
206,Paso Rio Mayo,Paso Rio Mayo,-45.68337563,-70.26657434,1825.0,Argentina,AR,ARG,Chubut,PASO RIO MAYO,AR
207,Alto Rio Sanguer,Alto Rio Sanguer,-45.03328611,-70.83328394,1548.0,Argentina,AR,ARG,Chubut,ALTO RIO SANGUER,AR
208,El Maiten,El Maiten,-42.05000568,-71.16662276,4269.0,Argentina,AR,ARG,Chubut,EL MAITEN,AR
209,Puerto Madryn,Puerto Madryn,-42.77001341,-65.04001998,61159.0,Argentina,AR,ARG,Chubut,PUERTO MADRYN,AR
210,Trelew,Trelew,-43.25003579,-65.3299506,93128.5,Argentina,AR,ARG,Chubut,TRELEW,AR
211,Las Heras,Las Heras,-32.82503904,-68.80167668,66663.0,Argentina,AR,ARG,Mendoza,LAS HERAS,AR
212,San Martin,San Martin,-33.06998533,-68.49001612,99974.0,Argentina,AR,ARG,Mendoza,SAN MARTIN,AR
213,Uspallata,Uspallata,-32.59311522,-69.34598454,2390.0,Argentina,AR,ARG,Mendoza,USPALLATA,AR
214,Cutral Co,Cutral Co,-38.94001463,-69.24002202,47597.0,Argentina,AR,ARG,Neuquén,CUTRAL CO,AR
215,Punta Alta,Punta Alta,-38.87996662,-62.0799681,55969.5,Argentina,AR,ARG,Ciudad de Buenos Aires,PUNTA ALTA,AR
216,San Nicolas,San Nicolas,-33.33002114,-60.24000289,117123.5,Argentina,AR,ARG,Ciudad de Buenos Aires,SAN NICOLAS,AR
217,Campana,Campana,-34.15999632,-58.95997766,77149.5,Argentina,AR,ARG,Ciudad de Buenos Aires,CAMPANA,AR
218,Chacabuco,Chacabuco,-34.65004393,-60.48998763,26645.0,Argentina,AR,ARG,Ciudad de Buenos Aires,CHACABUCO,AR
219,Mercedes,Mercedes,-34.66001748,-59.44002588,48408.5,Argentina,AR,ARG,Ciudad de Buenos Aires,MERCEDES,AR
220,Lincoln,Lincoln,-34.88000405,-61.53994938,19924.0,Argentina,AR,ARG,Ciudad de Buenos Aires,LINCOLN,AR
221,Chivilcoy,Chivilcoy,-34.89995115,-60.03998926,43719.0,Argentina,AR,ARG,Ciudad de Buenos Aires,CHIVILCOY,AR
222,Veinticinco de Mayo,Veinticinco de Mayo,-35.42999632,-60.17998071,18749.0,Argentina,AR,ARG,Ciudad de Buenos Aires,VEINTICINCO DE MAYO,AR
223,Nueve de Julio,Nueve de Julio,-35.44596434,-60.88998906,26716.0,Argentina,AR,ARG,Ciudad de Buenos Aires,NUEVE DE JULIO,AR
224,Dolores,Dolores,-36.33004474,-57.68997766,21586.5,Argentina,AR,ARG,Ciudad de Buenos Aires,DOLORES,AR
225,Pedro Luro,Pedro Luro,-39.48334064,-62.68331629,7100.0,Argentina,AR,ARG,Ciudad de Buenos Aires,PEDRO LURO,AR
226,Tres Arroyos,Tres Arroyos,-38.3699719,-60.26994938,34773.5,Argentina,AR,ARG,Ciudad de Buenos Aires,TRES ARROYOS,AR
227,Coronel Suarez,Coronel Suarez,-37.46661619,-61.9166189,20713.0,Argentina,AR,ARG,Ciudad de Buenos Aires,CORONEL SUAREZ,AR
228,Balcarce,Balcarce,-37.83331216,-58.24999516,18967.0,Argentina,AR,ARG,Ciudad de Buenos Aires,BALCARCE,AR
229,25 de Mayo,25 de Mayo,-37.80003253,-67.68329533,17430.0,Argentina,AR,ARG,Río Negro,25 DE MAYO,AR
230,General Roca,General Roca,-39.01995807,-67.60996647,38578.0,Argentina,AR,ARG,Río Negro,GENERAL ROCA,AR
231,Comallo,Comallo,-41.03332355,-70.26657434,741.0,Argentina,AR,ARG,Río Negro,COMALLO,AR
232,Ingeniero Jacobacci,Ingeniero Jacobacci,-41.30002562,-69.58330855,5719.0,Argentina,AR,ARG,Río Negro,INGENIERO JACOBACCI,AR
233,General Conesa,General Conesa,-40.10004718,-64.43328699,2958.0,Argentina,AR,ARG,Río Negro,GENERAL CONESA,AR
234,Choele Choel,Choele Choel,-39.26660968,-65.68331405,9895.5,Argentina,AR,ARG,Río Negro,CHOELE CHOEL,AR
235,San Francisco,San Francisco,-31.43003375,-62.08996749,43231.0,Argentina,AR,ARG,Córdoba,SAN FRANCISCO,AR
236,Alta Gracia,Alta Gracia,-31.65999388,-64.4299797,30593.0,Argentina,AR,ARG,Córdoba,ALTA GRACIA,AR
237,Villa Maria,Villa Maria,-32.41002562,-63.26002527,76701.0,Argentina,AR,ARG,Córdoba,VILLA MARIA,AR
238,Bell Ville,Bell Ville,-32.60003986,-62.67995732,29605.0,Argentina,AR,ARG,Córdoba,BELL VILLE,AR
239,Villa Rumipal,Villa Rumipal,-32.18332111,-64.48328394,1269.0,Argentina,AR,ARG,Córdoba,VILLA RUMIPAL,AR
240,Villa Carlos Paz,Villa Carlos Paz,-31.42000853,-64.50000126,60256.0,Argentina,AR,ARG,Córdoba,VILLA CARLOS PAZ,AR
241,Chumbicha,Chumbicha,-28.86662433,-66.23330632,2572.0,Argentina,AR,ARG,Catamarca,CHUMBICHA,AR
242,Tinogasta,Tinogasta,-28.06662148,-67.56658411,587.0,Argentina,AR,ARG,Catamarca,TINOGASTA,AR
243,Abra Pampa,Abra Pampa,-22.7166638,-65.6999797,4480.0,Argentina,AR,ARG,Jujuy,ABRA PAMPA,AR
244,Humahuaca,Humahuaca,-23.19999347,-65.34994938,11369.0,Argentina,AR,ARG,Jujuy,HUMAHUACA,AR
245,Susques,Susques,-23.41667275,-66.4833169,1093.0,Argentina,AR,ARG,Jujuy,SUSQUES,AR
246,Chepes,Chepes,-31.34998696,-66.5999506,6020.0,Argentina,AR,ARG,La Rioja,CHEPES,AR
247,Yacuiba,Yacuiba,-22.03003904,-63.69999841,64811.0,Argentina,AR,ARG,Salta,YACUIBA,AR
248,Tartagal,Tartagal,-22.55000731,-63.81001754,59996.5,Argentina,AR,ARG,Salta,TARTAGAL,AR
249,Joaquin V. Gonzalez,Joaquin V. Gonzalez,-25.08334105,-64.18335392,13376.0,Argentina,AR,ARG,Salta,JOAQUIN V GONZALEZ,AR
250,General Guemes,General Guemes,-24.6666223,-65.04996769,19828.0,Argentina,AR,ARG,Salta,GENERAL GUEMES,AR
251,Trancas,Trancas,-26.21665688,-65.28331262,1599.0,Argentina,AR,ARG,Tucumán,TRANCAS,AR
252,Presidencia Roque Saenz Pena,Presidencia Roque Saenz Pena,-26.7900069,-60.45001591,75958.0,Argentina,AR,ARG,Chaco,PRESIDENCIA ROQUE SAENZ PENA,AR
253,Pampa del Infierno,Pampa del Infierno,-26.51658689,-61.16658716,2921.0,Argentina,AR,ARG,Chaco,PAMPA DEL INFIERNO,AR
254,Villa Angela,Villa Angela,-27.58329181,-60.7166663,30051.0,Argentina,AR,ARG,Chaco,VILLA ANGELA,AR
255,Ingeniero Guillermo N. Juarez,Ingeniero Guillermo N. Juarez,-23.90000242,-61.84998214,6453.0,Argentina,AR,ARG,Formosa,INGENIERO GUILLERMO N JUAREZ,AR
256,Comandante Fontana,Comandante Fontana,-25.33329995,-59.68331852,4277.0,Argentina,AR,ARG,Formosa,COMANDANTE FONTANA,AR
257,Doctor Pedro P. Pena,Doctor Pedro P. Pena,-22.47998574,-62.29998051,6143.0,Argentina,AR,ARG,Formosa,DOCTOR PEDRO P PENA,AR
258,San Lorenzo,San Lorenzo,-28.12000324,-58.76998926,25833.5,Argentina,AR,ARG,Corrientes,SAN LORENZO,AR
259,Corrientes,Corrientes,-27.48996417,-58.80998682,339945.0,Argentina,AR,ARG,Corrientes,CORRIENTES,AR
260,Concepcion del Uruguay,Concepcion del Uruguay,-32.47999551,-58.23999577,48275.0,Argentina,AR,ARG,Entre Ríos,CONCEPCION DEL URUGUAY,AR
261,Victoria,Victoria,-32.61001341,-60.17998071,20032.5,Argentina,AR,ARG,Entre Ríos,VICTORIA,AR
262,Gualeguay,Gualeguay,-33.15003213,-59.34000615,25913.0,Argentina,AR,ARG,Entre Ríos,GUALEGUAY,AR
263,Parana,Parana,-31.73332273,-60.53334416,226852.0,Argentina,AR,ARG,Entre Ríos,PARANA,AR
264,Villa Constitucion,Villa Constitucion,-33.23002724,-60.35002202,30282.5,Argentina,AR,ARG,Santa Fe,VILLA CONSTITUCION,AR
265,Rafaela,Rafaela,-31.25004474,-61.49997766,69649.0,Argentina,AR,ARG,Santa Fe,RAFAELA,AR
266,Eldorado,Eldorado,-26.20001707,-54.59998539,17365.0,Argentina,AR,ARG,Misiones,ELDORADO,AR
267,Rodeo,Rodeo,-30.21558592,-69.1399506,701.0,Argentina,AR,ARG,San Juan,RODEO,AR
268,Las Plumas,Las Plumas,-43.41627887,-67.24998845,605.0,Argentina,AR,ARG,Chubut,LAS PLUMAS,AR
269,Gastre,Gastre,-42.28296303,-69.23330408,557.0,Argentina,AR,ARG,Chubut,GASTRE,AR
270,Telsen,Telsen,-42.39959674,-66.95000676,493.0,Argentina,AR,ARG,Chubut,TELSEN,AR
271,Malargue,Malargue,-35.46611815,-69.58330855,11847.0,Argentina,AR,ARG,Mendoza,MALARGUE,AR
272,Tunuyan,Tunuyan,-33.56618244,-69.01667647,22834.0,Argentina,AR,ARG,Mendoza,TUNUYAN,AR
273,La Paz,La Paz,-33.46613686,-67.54999597,4400.0,Argentina,AR,ARG,Mendoza,LA PAZ,AR
274,Chos Malal,Chos Malal,-37.38295205,-70.26657434,8556.0,Argentina,AR,ARG,Neuquén,CHOS MALAL,AR
275,Las Lajas,Las Lajas,-38.51626788,-70.36659408,1218.0,Argentina,AR,ARG,Neuquén,LAS LAJAS,AR
276,Zarate,Zarate,-34.08956134,-59.04002446,86192.0,Argentina,AR,ARG,Ciudad de Buenos Aires,ZARATE,AR
277,Carhue,Carhue,-37.1828609,-62.73331323,7190.0,Argentina,AR,ARG,Ciudad de Buenos Aires,CARHUE,AR
278,Darregueira,Darregueira,-37.69957355,-63.16659428,3412.0,Argentina,AR,ARG,Ciudad de Buenos Aires,DARREGUEIRA,AR
279,Juarez,Juarez,-37.66551878,-59.80002975,10609.0,Argentina,AR,ARG,Ciudad de Buenos Aires,JUAREZ,AR
280,Mar de Ajo,Mar de Ajo,-36.71622272,-56.67660283,13610.0,Argentina,AR,ARG,Ciudad de Buenos Aires,MAR DE AJO,AR
281,Lobos,Lobos,-35.184895,-59.09467228,18278.0,Argentina,AR,ARG,Ciudad de Buenos Aires,LOBOS,AR
282,Chascomus,Chascomus,-35.56621539,-58.01662439,21054.0,Argentina,AR,ARG,Ciudad de Buenos Aires,CHASCOMUS,AR
283,Junin,Junin,-34.58456989,-60.95887374,66141.5,Argentina,AR,ARG,Ciudad de Buenos Aires,JUNIN,AR
284,La Plata,La Plata,-34.90961465,-57.95996118,440388.5,Argentina,AR,ARG,Ciudad de Buenos Aires,LA PLATA,AR
285,Pergamino,Pergamino,-33.89959878,-60.56998275,71448.0,Argentina,AR,ARG,Ciudad de Buenos Aires,PERGAMINO,AR
286,Lujan,Lujan,-34.57960895,-59.10999435,69744.5,Argentina,AR,ARG,Ciudad de Buenos Aires,LUJAN,AR
287,Azul,Azul,-36.7796297,-59.86999964,43407.5,Argentina,AR,ARG,Ciudad de Buenos Aires,AZUL,AR
288,Villalonga,Villalonga,-39.88285114,-62.58332239,2838.0,Argentina,AR,ARG,Ciudad de Buenos Aires,VILLALONGA,AR
289,Victorica,Victorica,-36.21625324,-65.45002079,4458.0,Argentina,AR,ARG,La Pampa,VICTORICA,AR
290,General Pico,General Pico,-35.65959471,-63.77001998,46483.0,Argentina,AR,ARG,La Pampa,GENERAL PICO,AR
291,San Antonio Oeste,San Antonio Oeste,-40.73287677,-64.93328231,8492.0,Argentina,AR,ARG,Río Negro,SAN ANTONIO OESTE,AR
292,Sierra Colorado,Sierra Colorado,-40.58286009,-67.79998071,1522.0,Argentina,AR,ARG,Río Negro,SIERRA COLORADO,AR
293,Mercedes,Mercedes,-33.68958576,-65.4699679,49345.0,Argentina,AR,ARG,San Luis,MERCEDES,AR
294,Rio Tercero,Rio Tercero,-32.1796004,-64.12002446,38049.5,Argentina,AR,ARG,Córdoba,RIO TERCERO,AR
295,Belen,Belen,-27.64959267,-67.03328333,11359.0,Argentina,AR,ARG,Catamarca,BELEN,AR
296,Rinconada,Rinconada,-22.43290851,-66.16659204,6209.5,Argentina,AR,ARG,Jujuy,RINCONADA,AR
297,San Pedro,San Pedro,-24.21962116,-64.87000452,55249.0,Argentina,AR,ARG,Jujuy,SAN PEDRO,AR
298,Libertador General San Martin,Libertador General San Martin,-23.81954222,-64.78998356,47559.0,Argentina,AR,ARG,Jujuy,LIBERTADOR GENERAL SAN MARTIN,AR
299,Chilecito,Chilecito,-29.16552081,-67.49999903,20343.0,Argentina,AR,ARG,La Rioja,CHILECITO,AR
300,Chamical,Chamical,-30.34958291,-66.3166604,8989.0,Argentina,AR,ARG,La Rioja,CHAMICAL,AR
301,Los Blancos,Los Blancos,-23.59960732,-62.60003972,1145.0,Argentina,AR,ARG,Salta,LOS BLANCOS,AR
302,Cafayate,Cafayate,-26.08291828,-65.96660425,9478.0,Argentina,AR,ARG,Salta,CAFAYATE,AR
303,Cerrillos,Cerrillos,-24.89963133,-65.48330042,11498.0,Argentina,AR,ARG,Salta,CERRILLOS,AR
304,San Antonio de los Cobres,San Antonio de los Cobres,-24.18293089,-66.35001754,4000.0,Argentina,AR,ARG,Salta,SAN ANTONIO DE LOS COBRES,AR
305,Anatuya,Anatuya,-28.46613198,-62.83330713,14133.0,Argentina,AR,ARG,Santiago del Estero,ANATUYA,AR
306,Frias,Frias,-28.64958331,-65.14998743,13594.0,Argentina,AR,ARG,Santiago del Estero,FRIAS,AR
307,Monte Quemado,Monte Quemado,-25.79962807,-62.86658675,11387.0,Argentina,AR,ARG,Santiago del Estero,MONTE QUEMADO,AR
308,Juan Jose Castelli,Juan Jose Castelli,-25.9495414,-60.61664657,9421.0,Argentina,AR,ARG,Chaco,JUAN JOSE CASTELLI,AR
309,Charata,Charata,-27.21628579,-61.19999597,18297.0,Argentina,AR,ARG,Chaco,CHARATA,AR
310,Las Lomitas,Las Lomitas,-24.69959186,-60.60000676,7683.0,Argentina,AR,ARG,Formosa,LAS LOMITAS,AR
311,Mercedes,Mercedes,-29.1795768,-58.0799797,22872.5,Argentina,AR,ARG,Corrientes,MERCEDES,AR
312,Concordia,Concordia,-31.38957111,-58.02998275,132760.5,Argentina,AR,ARG,Entre Ríos,CONCORDIA,AR
313,Sunchales,Sunchales,-30.93290648,-61.56661442,12655.0,Argentina,AR,ARG,Santa Fe,SUNCHALES,AR
314,San Justo,San Justo,-30.78288979,-60.58328943,9607.0,Argentina,AR,ARG,Santa Fe,SAN JUSTO,AR
315,Vera,Vera,-29.4661743,-60.21659347,9979.0,Argentina,AR,ARG,Santa Fe,VERA,AR
316,Reconquista,Reconquista,-29.13952757,-59.65001306,86640.5,Argentina,AR,ARG,Santa Fe,RECONQUISTA,AR
317,Venado Tuerto,Venado Tuerto,-33.74958209,-61.97000065,52079.0,Argentina,AR,ARG,Santa Fe,VENADO TUERTO,AR
318,Esquel,Esquel,-42.90003131,-71.31661361,20048.0,Argentina,AR,ARG,Chubut,ESQUEL,AR
319,Zapala,Zapala,-38.90001707,-70.06666406,19152.0,Argentina,AR,ARG,Neuquén,ZAPALA,AR
320,Olavarria,Olavarria,-36.90003579,-60.3299974,65059.0,Argentina,AR,ARG,Ciudad de Buenos Aires,OLAVARRIA,AR
321,Tandil,Tandil,-37.32001015,-59.15004358,84799.5,Argentina,AR,ARG,Ciudad de Buenos Aires,TANDIL,AR
322,Viedma,Viedma,-40.79995278,-63.0000153,54031.0,Argentina,AR,ARG,Ciudad de Buenos Aires,VIEDMA,AR
323,San Luis,San Luis,-33.29999713,-66.35001754,308146.0,Argentina,AR,ARG,San Luis,SAN LUIS,AR
324,Rio Cuarto,Rio Cuarto,-33.13003335,-64.34998458,135959.5,Argentina,AR,ARG,Córdoba,RIO CUARTO,AR
325,San Salvador de Jujuy,San Salvador de Jujuy,-24.1833443,-65.30002995,258739.0,Argentina,AR,ARG,Jujuy,SAN SALVADOR DE JUJUY,AR
326,San Ramon de la Nueva Oran,San Ramon de la Nueva Oran,-23.13999713,-64.32001225,69461.5,Argentina,AR,ARG,Salta,SAN RAMON DE LA NUEVA ORAN,AR
327,Goya,Goya,-29.13999266,-59.26998458,71274.5,Argentina,AR,ARG,Corrientes,GOYA,AR
328,Puerto San Julian,Puerto San Julian,-49.30000242,-67.71665247,2347.0,Argentina,AR,ARG,Santa Cruz,PUERTO SAN JULIAN,AR
329,Perito Moreno,Perito Moreno,-46.60001219,-70.93335535,3766.0,Argentina,AR,ARG,Santa Cruz,PERITO MORENO,AR
330,Rio Grande,Rio Grande,-53.79144552,-67.6989952,31095.0,Argentina,AR,ARG,Tierra del Fuego,RIO GRANDE,AR
331,Ushuaia,Ushuaia,-54.79000324,-68.31000126,50483.5,Argentina,AR,ARG,Tierra del Fuego,USHUAIA,AR
332,Sarmiento,Sarmiento,-45.60002155,-69.08331323,5185.0,Argentina,AR,ARG,Chubut,SARMIENTO,AR
333,San Rafael,San Rafael,-34.60002114,-68.33333317,79523.5,Argentina,AR,ARG,Mendoza,SAN RAFAEL,AR
334,Necochea,Necochea,-38.55998615,-58.74999048,70562.0,Argentina,AR,ARG,Ciudad de Buenos Aires,NECOCHEA,AR
335,Rio Colorado,Rio Colorado,-38.96657632,-64.08328251,11499.0,Argentina,AR,ARG,La Pampa,RIO COLORADO,AR
336,Catamarca,Catamarca,-28.47000771,-65.78000065,162586.0,Argentina,AR,ARG,Catamarca,CATAMARCA,AR
337,La Rioja,La Rioja,-29.40995034,-66.84996118,147130.0,Argentina,AR,ARG,La Rioja,LA RIOJA,AR
338,Santiago del Estero,Santiago del Estero,-27.78333128,-64.26665633,317549.5,Argentina,AR,ARG,Santiago del Estero,SANTIAGO DEL ESTERO,AR
339,Resistencia,Resistencia,-27.45999184,-58.99002751,368455.5,Argentina,AR,ARG,Chaco,RESISTENCIA,AR
340,Gualeguaychu,Gualeguaychu,-33.02001422,-58.52000452,55860.5,Argentina,AR,ARG,Entre Ríos,GUALEGUAYCHU,AR
341,El Calafate,El Calafate,-50.33332436,-72.30001612,6329.0,Argentina,AR,ARG,Santa Cruz,EL CALAFATE,AR
342,San Juan,San Juan,-31.55002643,-68.51998845,433892.0,Argentina,AR,ARG,San Juan,SAN JUAN,AR
343,Rawson,Rawson,-43.3000069,-65.09999048,25062.5,Argentina,AR,ARG,Chubut,RAWSON,AR
344,Neuquen,Neuquen,-38.95003986,-68.05999068,213823.5,Argentina,AR,ARG,Neuquén,NEUQUEN,AR
345,Santa Rosa,Santa Rosa,-36.6200012,-64.29998763,97693.5,Argentina,AR,ARG,La Pampa,SANTA ROSA,AR
346,San Carlos de Bariloche,San Carlos de Bariloche,-41.14995726,-71.29999964,91953.0,Argentina,AR,ARG,Río Negro,SAN CARLOS DE BARILOCHE,AR
347,Salta,Salta,-24.78335936,-65.41663782,484646.0,Argentina,AR,ARG,Salta,SALTA,AR
348,Tucumán,San Miguel de Tucuman,-26.81600014,-65.21662419,678803.5,Argentina,AR,ARG,Tucumán,SAN MIGUEL DE TUCUMAN,AR
349,Formosa,Formosa,-26.17283527,-58.1828158,202272.0,Argentina,AR,ARG,Formosa,FORMOSA,AR
350,Santa Fe,Santa Fe,-31.62387205,-60.69000126,393504.0,Argentina,AR,ARG,Santa Fe,SANTA FE,AR
351,Rosario,Rosario,-32.95112954,-60.66630762,1094784.5,Argentina,AR,ARG,Santa Fe,ROSARIO,AR
352,Puerto Deseado,Puerto Deseado,-47.75001951,-65.89996749,3305.0,Argentina,AR,ARG,Santa Cruz,PUERTO DESEADO,AR
353,Rio Gallegos,Rio Gallegos,-51.63329669,-69.21658675,77183.0,Argentina,AR,ARG,Santa Cruz,RIO GALLEGOS,AR
354,Comodoro Rivadavia,Comodoro Rivadavia,-45.87003091,-67.49999903,123291.0,Argentina,AR,ARG,Chubut,COMODORO RIVADAVIA,AR
355,Mendoza,Mendoza,-32.88333006,-68.81661117,827815.0,Argentina,AR,ARG,Mendoza,MENDOZA,AR
356,Bahia Blanca,Bahia Blanca,-38.74002684,-62.2650214,279041.0,Argentina,AR,ARG,Ciudad de Buenos Aires,BAHIA BLANCA,AR
357,Mar del Plata,Mar del Plata,-38.00002033,-57.57998438,554916.0,Argentina,AR,ARG,Ciudad de Buenos Aires,MAR DEL PLATA,AR
358,Córdoba,Cordoba,-31.39995807,-64.18229456,1374467.5,Argentina,AR,ARG,Córdoba,CORDOBA,AR
359,Posadas,Posadas,-27.3578321,-55.88510735,334589.5,Argentina,AR,ARG,Misiones,POSADAS,AR
360,Buenos Aires,Buenos Aires,-34.60250161,-58.39753137,11862073.0,Argentina,AR,ARG,Ciudad de Buenos Aires,BUENOS AIRES,AR
361,Ashtarak,Ashtarak,40.3016667,44.3591667,18779.0,Armenia,AM,ARM,Aragatsotn,ASHTARAK,AM
362,Ijevan,Ijevan,40.8755556,45.1491667,14737.0,Armenia,AM,ARM,Tavush,IJEVAN,AM
363,Artashat,Artashat,39.9538889,44.5505556,20562.0,Armenia,AM,ARM,Ararat,ARTASHAT,AM
364,Gavarr,Gavarr,40.3588889,45.1266667,21680.0,Armenia,AM,ARM,Gegharkunik,GAVARR,AM
365,Yeghegnadzor,Yeghegnadzor,39.7611111,45.3333333,8200.0,Armenia,AM,ARM,Vayots Dzor,YEGHEGNADZOR,AM
366,Gyumri,Gyumri,40.78943402,43.84749385,140277.5,Armenia,AM,ARM,Shirak,GYUMRI,AM
367,Vanadzor,Vanadzor,40.81276593,44.48828162,89295.0,Armenia,AM,ARM,Lori,VANADZOR,AM
368,Yerevan,Yerevan,40.18115074,44.51355139,1097742.5,Armenia,AM,ARM,Erevan,YEREVAN,AM
369,Oranjestad,Oranjestad,12.53038373,-70.02899195,50887.5,Aruba,AW,ABW,,ORANJESTAD,AW
370,Central Coast,Central Coast,-33.42004148,151.3000048,3026.0,Australia,AU,AUS,New South Wales,CENTRAL COAST,AU
371,Sunshine Coast,Sunshine Coast,-26.67998777,153.0500272,57215.5,Australia,AU,AUS,Queensland,SUNSHINE COAST,AU
372,Bourke,Bourke,-30.1,145.9333333,2475.0,Australia,AU,AUS,New South Wales,BOURKE,AU
373,Pine Creek,Pine Creek,-13.81617348,131.816698,505.0,Australia,AU,AUS,Northern Territory,PINE CREEK,AU
374,Adelaide River,Adelaide River,-13.2495414,131.0999975,237.0,Australia,AU,AUS,Northern Territory,ADELAIDE RIVER,AU
375,McMinns Lagoon,McMinns Lagoon,-12.53289264,131.0500264,5025.0,Australia,AU,AUS,Northern Territory,MCMINNS LAGOON,AU
376,Newcastle Waters,Newcastle Waters,-17.55279295,133.4672432,10.0,Australia,AU,AUS,Northern Territory,NEWCASTLE WATERS,AU
377,Ravensthorpe,Ravensthorpe,-33.58287392,120.0333345,639.0,Australia,AU,AUS,Western Australia,RAVENSTHORPE,AU
378,Wagin,Wagin,-33.29958372,117.3499841,1037.5,Australia,AU,AUS,Western Australia,WAGIN,AU
379,Roebourne,Roebourne,-20.7829317,117.1333048,11281.5,Australia,AU,AUS,Western Australia,ROEBOURNE,AU
380,Pannawonica,Pannawonica,-21.63657469,116.3250337,686.0,Australia,AU,AUS,Western Australia,PANNAWONICA,AU
381,Tom Price,Tom Price,-22.69346108,117.7930578,1822.0,Australia,AU,AUS,Western Australia,TOM PRICE,AU
382,Kalbarri,Kalbarri,-27.66618081,114.1666642,1537.0,Australia,AU,AUS,Western Australia,KALBARRI,AU
383,Mount Magnet,Mount Magnet,-28.06620807,117.8166739,424.0,Australia,AU,AUS,Western Australia,MOUNT MAGNET,AU
384,Morawa,Morawa,-29.21626707,116.0000406,259.0,Australia,AU,AUS,Western Australia,MORAWA,AU
385,Port Denison,Port Denison,-29.28282632,114.9166442,1213.0,Australia,AU,AUS,Western Australia,PORT DENISON,AU
386,Merredin,Merredin,-31.48284707,118.2666723,2054.0,Australia,AU,AUS,Western Australia,MERREDIN,AU
387,Mount Barker,Mount Barker,-34.632784,117.6666056,1771.5,Australia,AU,AUS,Western Australia,MOUNT BARKER,AU
388,Katanning,Katanning,-33.69955931,117.5500752,3140.0,Australia,AU,AUS,Western Australia,KATANNING,AU
389,Narrogin,Narrogin,-32.93288776,117.1666361,3995.0,Australia,AU,AUS,Western Australia,NARROGIN,AU
390,Gingin,Gingin,-31.34957355,115.9000468,1446.0,Australia,AU,AUS,Western Australia,GINGIN,AU
391,Bunbury,Bunbury,-33.34428384,115.6502429,26683.5,Australia,AU,AUS,Western Australia,BUNBURY,AU
392,Kwinana,Kwinana,-32.23939004,115.7702356,18817.5,Australia,AU,AUS,Western Australia,KWINANA,AU
393,Southern Cross,Southern Cross,-31.216145,119.3166857,187.0,Australia,AU,AUS,Western Australia,SOUTHERN CROSS,AU
394,Kaltukatjara,Kaltukatjara,-25.78841429,128.9973352,355.0,Australia,AU,AUS,Northern Territory,KALTUKATJARA,AU
395,Queanbeyan,Queanbeyan,-35.3546004,149.2113468,32408.0,Australia,AU,AUS,Australian Capital Territory,QUEANBEYAN,AU
396,Tweed Heads,Tweed Heads,-28.1825834,153.5466377,33065.0,Australia,AU,AUS,New South Wales,TWEED HEADS,AU
397,Ivanhoe,Ivanhoe,-32.89960814,144.3000187,265.0,Australia,AU,AUS,New South Wales,IVANHOE,AU
398,Wilcannia,Wilcannia,-31.56620115,143.3833304,442.0,Australia,AU,AUS,New South Wales,WILCANNIA,AU
399,Merimbula,Merimbula,-36.89962238,149.9000386,3607.5,Australia,AU,AUS,New South Wales,MERIMBULA,AU
400,Echuca,Echuca,-36.12959186,144.750017,13460.0,Australia,AU,AUS,New South Wales,ECHUCA,AU
401,Deniliquin,Deniliquin,-35.5295768,144.9500048,6019.5,Australia,AU,AUS,New South Wales,DENILIQUIN,AU
402,Nowra,Nowra,-34.88284625,150.6000476,61036.5,Australia,AU,AUS,New South Wales,NOWRA,AU
403,Ulladulla,Ulladulla,-35.34953611,150.4700297,6811.0,Australia,AU,AUS,New South Wales,ULLADULLA,AU
404,Batemans Bay,Batemans Bay,-35.68961871,150.2073067,5604.0,Australia,AU,AUS,New South Wales,BATEMANS BAY,AU
405,Cooma,Cooma,-36.23955931,149.1200345,5661.5,Australia,AU,AUS,New South Wales,COOMA,AU
406,Tumut,Tumut,-35.30959023,148.2200378,4873.0,Australia,AU,AUS,New South Wales,TUMUT,AU
407,Leeton,Leeton,-34.54493406,146.3973067,6277.0,Australia,AU,AUS,New South Wales,LEETON,AU
408,Young,Young,-34.30959959,148.2900077,6422.0,Australia,AU,AUS,New South Wales,YOUNG,AU
409,Cowra,Cowra,-33.82962889,148.6800097,5729.5,Australia,AU,AUS,New South Wales,COWRA,AU
410,Forbes,Forbes,-33.38960407,148.0199983,4076.5,Australia,AU,AUS,New South Wales,FORBES,AU
411,Goulburn,Goulburn,-34.74957273,149.7101794,16444.0,Australia,AU,AUS,New South Wales,GOULBURN,AU
412,Kiama,Kiama,-34.70957518,150.8400329,10379.0,Australia,AU,AUS,New South Wales,KIAMA,AU
413,Katoomba,Katoomba,-33.70694904,150.320013,20334.5,Australia,AU,AUS,New South Wales,KATOOMBA,AU
414,Richmond,Richmond,-33.59951373,150.7399873,9720.0,Australia,AU,AUS,New South Wales,RICHMOND,AU
415,Lithgow,Lithgow,-33.49610919,150.152788,10338.0,Australia,AU,AUS,New South Wales,LITHGOW,AU
416,Parkes,Parkes,-33.12956826,148.170015,7160.0,Australia,AU,AUS,New South Wales,PARKES,AU
417,Bathurst,Bathurst,-33.41962807,149.5700329,6111.0,Australia,AU,AUS,New South Wales,BATHURST,AU
418,Maitland,Maitland,-32.72096271,151.555028,10026.5,Australia,AU,AUS,New South Wales,MAITLAND,AU
419,Singleton,Singleton,-32.56949909,151.1600134,8340.5,Australia,AU,AUS,New South Wales,SINGLETON,AU
420,Mudgee,Mudgee,-32.58960122,149.5801098,5391.0,Australia,AU,AUS,New South Wales,MUDGEE,AU
421,Muswellbrook,Muswellbrook,-32.26956907,150.890004,8171.0,Australia,AU,AUS,New South Wales,MUSWELLBROOK,AU
422,Taree,Taree,-31.89760211,152.4618461,30131.5,Australia,AU,AUS,New South Wales,TAREE,AU
423,Kempsey,Kempsey,-31.08736733,152.8220308,10681.0,Australia,AU,AUS,New South Wales,KEMPSEY,AU
424,Gunnedah,Gunnedah,-30.9870117,150.2622904,6204.0,Australia,AU,AUS,New South Wales,GUNNEDAH,AU
425,Coffs Harbour,Coffs Harbour,-30.3070532,153.1122973,48961.0,Australia,AU,AUS,New South Wales,COFFS HARBOUR,AU
426,Narrabri,Narrabri,-30.33190957,149.7874357,6105.5,Australia,AU,AUS,New South Wales,NARRABRI,AU
427,Inverell,Inverell,-29.7667761,151.1125744,6845.5,Australia,AU,AUS,New South Wales,INVERELL,AU
428,Yamba,Yamba,-29.42299136,153.353312,1806.0,Australia,AU,AUS,New South Wales,YAMBA,AU
429,Ballina,Ballina,-28.86135333,153.5679801,13997.5,Australia,AU,AUS,New South Wales,BALLINA,AU
430,Wagga Wagga,Wagga Wagga,-35.12215981,147.3399882,45549.0,Australia,AU,AUS,New South Wales,WAGGA WAGGA,AU
431,Scone,Scone,-32.07960651,150.8501098,4624.0,Australia,AU,AUS,New South Wales,SCONE,AU
432,Byron Bay,Byron Bay,-28.65650796,153.6128869,5244.5,Australia,AU,AUS,New South Wales,BYRON BAY,AU
433,Berri,Berri,-34.28293455,140.6000378,4523.0,Australia,AU,AUS,South Australia,BERRI,AU
434,Peterborough,Peterborough,-32.96616738,138.8333239,1351.0,Australia,AU,AUS,South Australia,PETERBOROUGH,AU
435,Wallaroo,Wallaroo,-33.9328784,137.6332938,2442.0,Australia,AU,AUS,South Australia,WALLAROO,AU
436,Clare,Clare,-33.8328845,138.6000048,2729.0,Australia,AU,AUS,South Australia,CLARE,AU
437,Meningie,Meningie,-35.69954059,139.3333451,850.0,Australia,AU,AUS,South Australia,MENINGIE,AU
438,Kingston South East,Kingston South East,-36.83280475,139.8500577,206.0,Australia,AU,AUS,South Australia,KINGSTON SOUTH EAST,AU
439,Bordertown,Bordertown,-36.31619546,140.7666426,1976.0,Australia,AU,AUS,South Australia,BORDERTOWN,AU
440,Penola,Penola,-37.38295205,140.8166654,1513.0,Australia,AU,AUS,South Australia,PENOLA,AU
441,Kingoonya,Kingoonya,-30.89957518,135.2999996,50.0,Australia,AU,AUS,South Australia,KINGOONYA,AU
442,Kimba,Kimba,-33.14961871,136.4333671,636.0,Australia,AU,AUS,South Australia,KIMBA,AU
443,Streaky Bay,Streaky Bay,-32.81187176,134.2149296,614.5,Australia,AU,AUS,South Australia,STREAKY BAY,AU
444,Cowell,Cowell,-33.68286782,136.9166451,537.0,Australia,AU,AUS,South Australia,COWELL,AU
445,Tumby Bay,Tumby Bay,-34.38292845,136.0833109,1791.0,Australia,AU,AUS,South Australia,TUMBY BAY,AU
446,Andamooka,Andamooka,-30.43097329,137.1655704,528.0,Australia,AU,AUS,South Australia,ANDAMOOKA,AU
447,Woomera,Woomera,-31.14958576,136.8000114,450.0,Australia,AU,AUS,South Australia,WOOMERA,AU
448,Port Pirie,Port Pirie,-33.19106321,137.9900162,12417.0,Australia,AU,AUS,South Australia,PORT PIRIE,AU
449,Gawler,Gawler,-34.60735919,138.7263537,15542.5,Australia,AU,AUS,South Australia,GAWLER,AU
450,Murray Bridge,Murray Bridge,-35.12960122,139.2600162,14185.5,Australia,AU,AUS,South Australia,MURRAY BRIDGE,AU
451,Victor Harbor,Victor Harbor,-35.55960081,138.6173164,7489.0,Australia,AU,AUS,South Australia,VICTOR HARBOR,AU
452,Hamilton,Hamilton,-37.73119953,142.0234135,6992.5,Australia,AU,AUS,Victoria,HAMILTON,AU
453,Ouyen,Ouyen,-35.06619424,142.3166772,912.0,Australia,AU,AUS,Victoria,OUYEN,AU
454,Colac,Colac,-38.33953449,143.5800109,7450.0,Australia,AU,AUS,Victoria,COLAC,AU
455,Stawell,Stawell,-37.05961261,142.7600093,4596.0,Australia,AU,AUS,Victoria,STAWELL,AU
456,Horsham,Horsham,-36.70960814,142.1900183,11985.5,Australia,AU,AUS,Victoria,HORSHAM,AU
457,Ararat,Ararat,-37.27954751,142.9099743,5464.0,Australia,AU,AUS,Victoria,ARARAT,AU
458,Maryborough,Maryborough,-37.04958738,143.729976,5838.5,Australia,AU,AUS,Victoria,MARYBOROUGH,AU
459,Bairnsdale,Bairnsdale,-37.82959145,147.6099975,9427.0,Australia,AU,AUS,Victoria,BAIRNSDALE,AU
460,Sale,Sale,-38.10957436,147.0600052,17701.5,Australia,AU,AUS,Victoria,SALE,AU
461,Traralgon,Traralgon,-38.19959471,146.5300118,16982.5,Australia,AU,AUS,Victoria,TRARALGON,AU
462,Wonthaggi,Wonthaggi,-38.60949217,145.5900175,4471.5,Australia,AU,AUS,Victoria,WONTHAGGI,AU
463,Cranbourne,Cranbourne,-38.09960081,145.2833695,249955.0,Australia,AU,AUS,Victoria,CRANBOURNE,AU
464,Ballarat,Ballarat,-37.55958209,143.8400468,73404.0,Australia,AU,AUS,Victoria,BALLARAT,AU
465,Melton,Melton,-37.68954832,144.570028,29750.0,Australia,AU,AUS,Victoria,MELTON,AU
466,Seymour,Seymour,-37.03423948,145.1273067,3693.0,Australia,AU,AUS,Victoria,SEYMOUR,AU
467,Shepparton,Shepparton,-36.37458982,145.3913732,33430.5,Australia,AU,AUS,Victoria,SHEPPARTON,AU
468,Cobram,Cobram,-35.91963051,145.6500138,4659.0,Australia,AU,AUS,Victoria,COBRAM,AU
469,Swan Hill,Swan Hill,-35.33961424,143.5400134,9073.0,Australia,AU,AUS,Victoria,SWAN HILL,AU
470,Sunbury,Sunbury,-37.56960732,144.7100195,18677.5,Australia,AU,AUS,Victoria,SUNBURY,AU
471,Proserpine,Proserpine,-20.41623574,148.5834781,3976.0,Australia,AU,AUS,Queensland,PROSERPINE,AU
472,Theodore,Theodore,-24.94949909,150.0833349,246.0,Australia,AU,AUS,Queensland,THEODORE,AU
473,Eidsvold,Eidsvold,-25.36621784,151.1333483,459.0,Australia,AU,AUS,Queensland,EIDSVOLD,AU
474,Barcaldine,Barcaldine,-23.56617267,145.2833695,1068.0,Australia,AU,AUS,Queensland,BARCALDINE,AU
475,Winton,Winton,-22.39962889,143.0332743,1157.0,Australia,AU,AUS,Queensland,WINTON,AU
476,Longreach,Longreach,-23.44959064,144.2500476,2894.0,Australia,AU,AUS,Queensland,LONGREACH,AU
477,Caboolture,Caboolture,-27.08296059,152.9499816,26495.5,Australia,AU,AUS,Queensland,CABOOLTURE,AU
478,Warwick,Warwick,-28.22924721,152.0203226,10024.0,Australia,AU,AUS,Queensland,WARWICK,AU
479,Kingaroy,Kingaroy,-26.53896279,151.840592,7494.5,Australia,AU,AUS,Queensland,KINGAROY,AU
480,Dalby,Dalby,-27.19385822,151.2657434,9818.5,Australia,AU,AUS,Queensland,DALBY,AU
481,Bongaree,Bongaree,-27.07872313,153.1508996,10327.5,Australia,AU,AUS,Queensland,BONGAREE,AU
482,Gympie,Gympie,-26.18859658,152.6709289,11338.0,Australia,AU,AUS,Queensland,GYMPIE,AU
483,Ingham,Ingham,-18.64957355,146.1666231,5996.5,Australia,AU,AUS,Queensland,INGHAM,AU
484,Birdsville,Birdsville,-25.89962197,139.3666247,283.0,Australia,AU,AUS,Queensland,BIRDSVILLE,AU
485,Bedourie,Bedourie,-24.34958738,139.4666186,142.0,Australia,AU,AUS,Queensland,BEDOURIE,AU
486,Boulia,Boulia,-22.89959837,139.9000288,402.5,Australia,AU,AUS,Queensland,BOULIA,AU
487,Richmond,Richmond,-20.71626911,143.1333199,296.0,Australia,AU,AUS,Queensland,RICHMOND,AU
488,Burketown,Burketown,-17.71609048,139.5666125,186.5,Australia,AU,AUS,Queensland,BURKETOWN,AU
489,Hervey Bay,Hervey Bay,-25.28870319,152.8409444,25114.0,Australia,AU,AUS,Queensland,HERVEY BAY,AU
490,Biloela,Biloela,-24.39356403,150.4960746,4366.5,Australia,AU,AUS,Queensland,BILOELA,AU
491,Yeppoon,Yeppoon,-23.13291746,150.7567305,6450.5,Australia,AU,AUS,Queensland,YEPPOON,AU
492,Emerald,Emerald,-23.51222247,148.1673278,7489.0,Australia,AU,AUS,Queensland,EMERALD,AU
493,Moranbah,Moranbah,-22.00156533,148.0380334,7357.0,Australia,AU,AUS,Queensland,MORANBAH,AU
494,Charters Towers,Charters Towers,-20.08090737,146.2587105,8369.5,Australia,AU,AUS,Queensland,CHARTERS TOWERS,AU
495,Ayr,Ayr,-19.57024087,147.3994677,7166.0,Australia,AU,AUS,Queensland,AYR,AU
496,Atherton,Atherton,-17.27027789,145.469353,6132.5,Australia,AU,AUS,Queensland,ATHERTON,AU
497,Port Douglas,Port Douglas,-16.48458812,145.4587219,2004.5,Australia,AU,AUS,Queensland,PORT DOUGLAS,AU
498,Smithton,Smithton,-40.83292234,145.1166613,3351.0,Australia,AU,AUS,Tasmania,SMITHTON,AU
499,Scottsdale,Scottsdale,-41.14949217,147.5166699,1683.5,Australia,AU,AUS,Tasmania,SCOTTSDALE,AU
500,Bicheno,Bicheno,-41.87838825,148.2886124,177.0,Australia,AU,AUS,Tasmania,BICHENO,AU
501,Oatlands,Oatlands,-42.29960285,147.3666015,1157.0,Australia,AU,AUS,Tasmania,OATLANDS,AU
502,Queenstown,Queenstown,-42.08292356,145.5500199,1658.0,Australia,AU,AUS,Tasmania,QUEENSTOWN,AU
503,Kingston,Kingston,-42.99113686,147.3084139,12652.0,Australia,AU,AUS,Tasmania,KINGSTON,AU
504,Tennant Creek,Tennant Creek,-19.65002928,134.200015,3490.5,Australia,AU,AUS,Northern Territory,TENNANT CREEK,AU
505,Yulara,Yulara,-25.24054075,130.9888932,930.0,Australia,AU,AUS,Northern Territory,YULARA,AU
506,Erldunda,Erldunda,-25.23330605,133.1999727,10.0,Australia,AU,AUS,Northern Territory,ERLDUNDA,AU
507,Norseman,Norseman,-32.20001259,121.7666137,1004.0,Australia,AU,AUS,Western Australia,NORSEMAN,AU
508,Halls Creek,Halls Creek,-18.26670286,127.7667126,1209.0,Australia,AU,AUS,Western Australia,HALLS CREEK,AU
509,Kununurra,Kununurra,-15.76659707,128.7333203,5229.5,Australia,AU,AUS,Western Australia,KUNUNURRA,AU
510,Derby,Derby,-17.29999184,123.9666345,3199.0,Australia,AU,AUS,Western Australia,DERBY,AU
511,Onslow,Onslow,-21.65759354,115.0962959,573.0,Australia,AU,AUS,Western Australia,ONSLOW,AU
512,Exmouth,Exmouth,-21.93109987,114.1233469,1085.0,Australia,AU,AUS,Western Australia,EXMOUTH,AU
513,Carnarvon,Carnarvon,-24.89983803,113.6501066,7392.0,Australia,AU,AUS,Western Australia,CARNARVON,AU
514,Newman,Newman,-23.36659829,119.7333011,2678.0,Australia,AU,AUS,Western Australia,NEWMAN,AU
515,Meekatharra,Meekatharra,-26.59999266,118.4832999,654.0,Australia,AU,AUS,Western Australia,MEEKATHARRA,AU
516,Three Springs,Three Springs,-29.53330198,115.7499784,190.0,Australia,AU,AUS,Western Australia,THREE SPRINGS,AU
517,Manjimup,Manjimup,-34.23332518,116.1500057,4016.5,Australia,AU,AUS,Western Australia,MANJIMUP,AU
518,Northam,Northam,-31.65658323,116.6533858,5330.0,Australia,AU,AUS,Western Australia,NORTHAM,AU
519,Esperance,Esperance,-33.857307,121.8888973,7205.0,Australia,AU,AUS,Western Australia,ESPERANCE,AU
520,Leonara,Leonara,-28.88150714,121.3280358,227.0,Australia,AU,AUS,Western Australia,LEONARA,AU
521,Laverton,Laverton,-28.62700071,122.4040425,316.0,Australia,AU,AUS,Western Australia,LAVERTON,AU
522,Wyndham,Wyndham,-15.37395953,128.3600614,734.5,Australia,AU,AUS,Western Australia,WYNDHAM,AU
523,Albury,Albury,-36.06003538,146.9200138,68534.0,Australia,AU,AUS,New South Wales,ALBURY,AU
524,Forster-Tuncurry,Forster-Tuncurry,-32.19313963,152.5266483,13275.5,Australia,AU,AUS,New South Wales,FORSTERTUNCURRY,AU
525,Port Macquarie,Port Macquarie,-31.44501992,152.9186657,42070.0,Australia,AU,AUS,New South Wales,PORT MACQUARIE,AU
526,Tamworth,Tamworth,-31.10261188,150.9171342,35080.0,Australia,AU,AUS,New South Wales,TAMWORTH,AU
527,Grafton,Grafton,-29.71199909,152.9376827,7871.5,Australia,AU,AUS,New South Wales,GRAFTON,AU
528,Moree,Moree,-29.469895,149.8300687,8062.0,Australia,AU,AUS,New South Wales,MOREE,AU
529,Goondiwindi,Goondiwindi,-28.55480874,150.325284,4251.0,Australia,AU,AUS,New South Wales,GOONDIWINDI,AU
530,Lismore,Lismore,-28.81665322,153.2931132,28065.5,Australia,AU,AUS,New South Wales,LISMORE,AU
531,Wollongong,Wollongong,-34.41538125,150.890004,201319.5,Australia,AU,AUS,New South Wales,WOLLONGONG,AU
532,Ceduna,Ceduna,-32.09913464,133.6622674,1252.5,Australia,AU,AUS,South Australia,CEDUNA,AU
533,Mount Gambier,Mount Gambier,-37.83134845,140.7650406,21818.5,Australia,AU,AUS,South Australia,MOUNT GAMBIER,AU
534,Port Augusta,Port Augusta,-32.49002073,137.7700297,11186.5,Australia,AU,AUS,South Australia,PORT AUGUSTA,AU
535,Warrnambool,Warrnambool,-38.37999713,142.4700012,29882.0,Australia,AU,AUS,Victoria,WARRNAMBOOL,AU
536,Mildura,Mildura,-34.18500771,142.1513643,33324.5,Australia,AU,AUS,Victoria,MILDURA,AU
537,Geelong,Geelong,-38.16749505,144.3956335,149336.0,Australia,AU,AUS,Victoria,GEELONG,AU
538,Camooweal,Camooweal,-19.91673134,138.1166752,187.0,Australia,AU,AUS,Queensland,CAMOOWEAL,AU
539,Quilpie,Quilpie,-26.61663247,144.2500476,560.0,Australia,AU,AUS,Queensland,QUILPIE,AU
540,Charleville,Charleville,-26.40000486,146.2500288,1900.0,Australia,AU,AUS,Queensland,CHARLEVILLE,AU
541,Hughenden,Hughenden,-20.85000771,144.2000248,421.0,Australia,AU,AUS,Queensland,HUGHENDEN,AU
542,Caloundra,Caloundra,-26.80003213,153.1333296,33737.0,Australia,AU,AUS,Queensland,CALOUNDRA,AU
543,Roma,Roma,-26.55937498,148.7907006,4560.5,Australia,AU,AUS,Queensland,ROMA,AU
544,Toowoomba,Toowoomba,-27.56453327,151.9555204,86711.0,Australia,AU,AUS,Queensland,TOOWOOMBA,AU
545,Georgetown,Georgetown,-18.30003416,143.5332955,818.0,Australia,AU,AUS,Queensland,GEORGETOWN,AU
546,Thargomindah,Thargomindah,-27.99995888,143.816689,203.0,Australia,AU,AUS,Queensland,THARGOMINDAH,AU
547,Weipa,Weipa,-12.66663125,141.8666272,2830.0,Australia,AU,AUS,Queensland,WEIPA,AU
548,Karumba,Karumba,-17.48333982,140.8334086,173.0,Australia,AU,AUS,Queensland,KARUMBA,AU
549,Cloncurry,Cloncurry,-20.69999103,140.4999922,1202.0,Australia,AU,AUS,Queensland,CLONCURRY,AU
550,Maryborough,Maryborough,-25.54910073,152.7209,18920.5,Australia,AU,AUS,Queensland,MARYBOROUGH,AU
551,Bundaberg,Bundaberg,-24.87906411,152.3508968,46062.0,Australia,AU,AUS,Queensland,BUNDABERG,AU
552,Gladstone,Gladstone,-23.8533386,151.2467264,29055.0,Australia,AU,AUS,Queensland,GLADSTONE,AU
553,Bowen,Bowen,-20.00132566,148.208669,10983.0,Australia,AU,AUS,Queensland,BOWEN,AU
554,Innisfail,Innisfail,-17.53134723,146.0386722,9707.0,Australia,AU,AUS,Queensland,INNISFAIL,AU
555,Mackay,Mackay,-21.14389158,149.1500069,66053.5,Australia,AU,AUS,Queensland,MACKAY,AU
556,Burnie,Burnie,-41.06660317,145.9166642,18490.5,Australia,AU,AUS,Tasmania,BURNIE,AU
557,Launceston,Launceston,-41.44983559,147.1301818,65106.5,Australia,AU,AUS,Tasmania,LAUNCESTON,AU
558,Katherine,Katherine,-14.46662474,132.266593,8171.5,Australia,AU,AUS,Northern Territory,KATHERINE,AU
559,Busselton,Busselton,-33.65640949,115.3486592,9595.0,Australia,AU,AUS,Western Australia,BUSSELTON,AU
560,Mandurah,Mandurah,-32.52348259,115.7470567,52866.0,Australia,AU,AUS,Western Australia,MANDURAH,AU
561,Broome,Broome,-17.96177069,122.2307681,11890.5,Australia,AU,AUS,Western Australia,BROOME,AU
562,Kalgoorlie,Kalgoorlie,-30.73539915,121.4600175,32058.0,Australia,AU,AUS,Western Australia,KALGOORLIE,AU
563,Albany,Albany,-35.0169466,117.8916048,25179.0,Australia,AU,AUS,Western Australia,ALBANY,AU
564,Port Hedland,Port Hedland,-20.31040241,118.6060315,8997.0,Australia,AU,AUS,Western Australia,PORT HEDLAND,AU
565,Karratha,Karratha,-20.73037677,116.8700134,16636.0,Australia,AU,AUS,Western Australia,KARRATHA,AU
566,Geraldton,Geraldton,-28.76663043,114.5999711,27065.0,Australia,AU,AUS,Western Australia,GERALDTON,AU
567,Griffith,Griffith,-34.29001422,146.0400158,11664.5,Australia,AU,AUS,New South Wales,GRIFFITH,AU
568,Orange,Orange,-33.27999835,149.0999841,36708.0,Australia,AU,AUS,New South Wales,ORANGE,AU
569,Dubbo,Dubbo,-32.25995726,148.5973274,30467.5,Australia,AU,AUS,New South Wales,DUBBO,AU
570,Armidale,Armidale,-30.51231199,151.667476,21793.5,Australia,AU,AUS,New South Wales,ARMIDALE,AU
571,Broken Hill,Broken Hill,-31.94995034,141.4331136,17232.5,Australia,AU,AUS,New South Wales,BROKEN HILL,AU
572,Port Lincoln,Port Lincoln,-34.73324298,135.86658,12438.5,Australia,AU,AUS,South Australia,PORT LINCOLN,AU
573,Whyalla,Whyalla,-33.02502684,137.5614119,21102.0,Australia,AU,AUS,South Australia,WHYALLA,AU
574,Portland,Portland,-38.33999957,141.5900032,10324.5,Australia,AU,AUS,Victoria,PORTLAND,AU
575,Bendigo,Bendigo,-36.75999266,144.2800199,68790.0,Australia,AU,AUS,Victoria,BENDIGO,AU
576,Wangaratta,Wangaratta,-36.36001707,146.3,11369.5,Australia,AU,AUS,Victoria,WANGARATTA,AU
577,Windorah,Windorah,-25.43324217,142.6501969,158.0,Australia,AU,AUS,Queensland,WINDORAH,AU
578,Mount Isa,Mount Isa,-20.72386554,139.490028,27596.0,Australia,AU,AUS,Queensland,MOUNT ISA,AU
579,Rockhampton,Rockhampton,-23.36391111,150.5200008,59024.5,Australia,AU,AUS,Queensland,ROCKHAMPTON,AU
580,Cairns,Cairns,-16.88783986,145.7633309,132107.0,Australia,AU,AUS,Queensland,CAIRNS,AU
581,Gold Coast,Gold Coast,-28.08150429,153.4482458,429954.5,Australia,AU,AUS,Queensland,GOLD COAST,AU
582,Devonport,Devonport,-41.19266757,146.3311017,17932.5,Australia,AU,AUS,Tasmania,DEVONPORT,AU
583,Darwin,Darwin,-12.42535398,130.8500386,82973.0,Australia,AU,AUS,Northern Territory,DARWIN,AU
584,Alice Springs,Alice Springs,-23.70099648,133.8800345,26949.0,Australia,AU,AUS,Northern Territory,ALICE SPRINGS,AU
585,Canberra,Canberra,-35.28302855,149.1290262,280866.0,Australia,AU,AUS,Australian Capital Territory,CANBERRA,AU
586,Newcastle,Newcastle,-32.84534788,151.8150122,816285.5,Australia,AU,AUS,New South Wales,NEWCASTLE,AU
587,Adelaide,Adelaide,-34.93498777,138.6000048,990677.0,Australia,AU,AUS,South Australia,ADELAIDE,AU
588,Townsville,Townsville,-19.24995034,146.7699971,129212.0,Australia,AU,AUS,Queensland,TOWNSVILLE,AU
589,Brisbane,Brisbane,-27.45503091,153.0350927,1393176.5,Australia,AU,AUS,Queensland,BRISBANE,AU
590,Hobart,Hobart,-42.85000853,147.2950297,64285.0,Australia,AU,AUS,Tasmania,HOBART,AU
591,Perth,Perth,-31.95501463,115.8399987,1206108.0,Australia,AU,AUS,Western Australia,PERTH,AU
592,Melbourne,Melbourne,-37.82003131,144.9750162,2131812.5,Australia,AU,AUS,Victoria,MELBOURNE,AU
593,Sydney,Sydney,-33.92001097,151.1851798,4135711.0,Australia,AU,AUS,New South Wales,SYDNEY,AU
594,Bregenz,Bregenz,47.51669707,9.766701588,26928.0,Austria,AT,AUT,Vorarlberg,BREGENZ,AT
595,Eisenstadt,Eisenstadt,47.83329908,16.53329747,13165.0,Austria,AT,AUT,Burgenland,EISENSTADT,AT
596,Wiener Neustadt,Wiener Neustadt,47.81598187,16.24995357,60621.5,Austria,AT,AUT,Niederösterreich,WIENER NEUSTADT,AT
597,Graz,Graz,47.0777582,15.41000484,242780.0,Austria,AT,AUT,Steiermark,GRAZ,AT
598,Klagenfurt,Klagenfurt,46.62034426,14.3100203,88588.0,Austria,AT,AUT,Kärnten,KLAGENFURT,AT
599,Linz,Linz,48.31923281,14.28878129,265161.5,Austria,AT,AUT,Oberösterreich,LINZ,AT
600,Passau,Passau,48.56704714,13.46660925,50000.0,Austria,AT,AUT,Oberösterreich,PASSAU,AT
601,Salzburg,Salzburg,47.81047833,13.0400203,178274.0,Austria,AT,AUT,Salzburg,SALZBURG,AT
602,Innsbruck,Innsbruck,47.28040733,11.4099906,133840.5,Austria,AT,AUT,Tirol,INNSBRUCK,AT
603,Vienna,Vienna,48.20001528,16.36663896,2065500.0,Austria,AT,AUT,Wien,VIENNA,AT
604,Gadabay,Gadabay,40.5655556,45.8161111,8657.0,Azerbaijan,AZ,AZE,Gadabay,GADABAY,AZ
605,Goranboy,Goranboy,40.6102778,46.7897222,7333.0,Azerbaijan,AZ,AZE,Goranboy,GORANBOY,AZ
606,Tovuz,Tovuz,40.9922222,45.6288889,12626.0,Azerbaijan,AZ,AZE,Tovuz,TOVUZ,AZ
607,Agdam,Agdam,40.9052778,45.5563889,0.0,Azerbaijan,AZ,AZE,Tovuz,AGDAM,AZ
608,Qabala,Qabala,40.9813889,47.8458333,11867.0,Azerbaijan,AZ,AZE,Qabala,QABALA,AZ
609,Oguz,Oguz,41.0708333,47.4583333,6876.0,Azerbaijan,AZ,AZE,Oguz,OGUZ,AZ
610,Ganca,Ganca,40.68499595,46.35002844,301699.5,Azerbaijan,AZ,AZE,Ganca,GANCA,AZ
611,Yevlax,Yevlax,40.61719647,47.15003129,50014.0,Azerbaijan,AZ,AZE,Yevlax,YEVLAX,AZ
612,Sumqayt,Sumqayt,40.58001528,49.62998328,272154.5,Azerbaijan,AZ,AZE,Sumqayit,SUMQAYT,AZ
613,Ali Bayramli,Ali Bayramli,39.93230288,48.92025915,70452.0,Azerbaijan,AZ,AZE,?li Bayramli,ALI BAYRAMLI,AZ
614,Goycay,Goycay,40.65342165,47.74058956,35031.5,Azerbaijan,AZ,AZE,Göyçay,GOYCAY,AZ
615,Lankaran,Lankaran,38.7540027,48.85106441,60180.0,Azerbaijan,AZ,AZE,Astara,LANKARAN,AZ
616,Saki,Saki,41.19232932,47.17054683,63579.5,Azerbaijan,AZ,AZE,S?ki,SAKI,AZ
617,Stepanakert,Stepanakert,39.81564333,46.75196773,57473.0,Azerbaijan,AZ,AZE,Xocali,STEPANAKERT,AZ
618,Kapan,Kapan,39.20152061,46.41498572,37724.0,Azerbaijan,AZ,AZE,Z?ngilan,KAPAN,AZ
619,Naxcivan,Naxcivan,39.2092204,45.41220455,79771.0,Azerbaijan,AZ,AZE,Naxçivan,NAXCIVAN,AZ
620,Baku,Baku,40.39527203,49.86221716,2007150.0,Azerbaijan,AZ,AZE,Baki,BAKU,AZ
621,Manama,Manama,26.23613629,50.58305172,360697.0,Bahrain,BH,BHR,,MANAMA,BH
622,Tangail,Tangail,24.24997845,89.92003048,180144.0,Bangladesh,BD,BGD,Dhaka,TANGAIL,BD
623,Sylhet,Sylhet,24.90355613,91.87360632,237000.0,Bangladesh,BD,BGD,Sylhet,SYLHET,BD
624,Mymensingh,Mymensingh,24.75041302,90.3800024,330126.0,Bangladesh,BD,BGD,Dhaka,MYMENSINGH,BD
625,Jamalpur,Jamalpur,24.90042971,89.95000281,167900.0,Bangladesh,BD,BGD,Dhaka,JAMALPUR,BD
626,Narayanganj,Narayanganj,23.62040448,90.49999508,223622.0,Bangladesh,BD,BGD,Dhaka,NARAYANGANJ,BD
627,Jessore,Jessore,23.17043194,89.19997107,243987.0,Bangladesh,BD,BGD,Khulna,JESSORE,BD
628,Barisal,Barisal,22.70040895,90.37498979,202242.0,Bangladesh,BD,BGD,Barisal,BARISAL,BD
629,Comilla,Comilla,23.47041363,91.16998002,389411.0,Bangladesh,BD,BGD,Chittagong,COMILLA,BD
630,Pabna,Pabna,24.00038129,89.24999385,137888.0,Bangladesh,BD,BGD,Rajshahi,PABNA,BD
631,Nawabganj,Nawabganj,24.58039756,88.34999711,142361.0,Bangladesh,BD,BGD,Rajshahi,NAWABGANJ,BD
632,Saidpur,Saidpur,25.80042645,88.99998328,232209.0,Bangladesh,BD,BGD,Rajshahi,SAIDPUR,BD
633,Rangpur,Rangpur,25.75001609,89.28001786,285564.0,Bangladesh,BD,BGD,Rajshahi,RANGPUR,BD
634,Khulna,Khulna,22.839987,89.56000077,1447669.5,Bangladesh,BD,BGD,Khulna,KHULNA,BD
635,Rajshahi,Rajshahi,24.37498374,88.6050203,755066.5,Bangladesh,BD,BGD,Rajshahi,RAJSHAHI,BD
636,Dhaka,Dhaka,23.72305971,90.40857947,9899167.0,Bangladesh,BD,BGD,Dhaka,DHAKA,BD
637,Chittagong,Chittagong,22.32999229,91.79996741,4224611.0,Bangladesh,BD,BGD,Chittagong,CHITTAGONG,BD
638,Bridgetown,Bridgetown,13.10200258,-59.61652674,143865.0,Barbados,BB,BRB,Saint Michael,BRIDGETOWN,BB
639,Baranavichy,Baranavichy,53.13684572,26.01344031,156514.5,Belarus,BY,BLR,Brest,BARANAVICHY,BY
640,Polatsk,Polatsk,55.48938946,28.78598425,79216.0,Belarus,BY,BLR,Vitsyebsk,POLATSK,BY
641,Maladzyechna,Maladzyechna,54.31878908,26.86532629,96055.0,Belarus,BY,BLR,Minsk,MALADZYECHNA,BY
642,Pinsk,Pinsk,52.12786338,26.09405554,120838.5,Belarus,BY,BLR,Brest,PINSK,BY
643,Mazyr,Mazyr,52.04595624,29.27215613,100936.0,Belarus,BY,BLR,Homyel',MAZYR,BY
644,Mahilyow,Mahilyow,53.89850466,30.32465002,343527.0,Belarus,BY,BLR,Mahilyow,MAHILYOW,BY
645,Babruysk,Babruysk,53.12656211,29.19278113,212821.5,Belarus,BY,BLR,Mahilyow,BABRUYSK,BY
646,Orsha,Orsha,54.51531455,30.42154333,130276.5,Belarus,BY,BLR,Vitsyebsk,ORSHA,BY
647,Lida,Lida,53.88847943,25.28464758,99126.0,Belarus,BY,BLR,Hrodna,LIDA,BY
648,Hrodna,Hrodna,53.67787213,23.83409013,285867.0,Belarus,BY,BLR,Hrodna,HRODNA,BY
649,Barysaw,Barysaw,54.22600405,28.49215206,127694.5,Belarus,BY,BLR,Minsk,BARYSAW,BY
650,Homyel,Homyel,52.43001548,31.00000932,472337.5,Belarus,BY,BLR,Homyel',HOMYEL,BY
651,Vitsyebsk,Vitsyebsk,55.18871014,30.18533036,333318.5,Belarus,BY,BLR,Vitsyebsk,VITSYEBSK,BY
652,Brest,Brest,52.09998395,23.69998979,266775.0,Belarus,BY,BLR,Brest,BREST,BY
653,Minsk,Minsk,53.89997744,27.56662716,1691069.0,Belarus,BY,BLR,Minsk,MINSK,BY
654,Mons,Mons,50.44599911,3.939003561,91277.0,Belgium,BE,BEL,Hainaut,MONS,BE
655,Hasselt,Hasselt,50.96400317,5.483997561,69222.0,Belgium,BE,BEL,Limburg,HASSELT,BE
656,Arlon,Arlon,49.68330313,5.816700472,26179.0,Belgium,BE,BEL,Arlon,ARLON,BE
657,Gent,Gent,51.02999758,3.700021931,337914.5,Belgium,BE,BEL,East Flanders,GENT,BE
658,Liege,Liege,50.62999615,5.580010537,472803.0,Belgium,BE,BEL,Liege,LIEGE,BE
659,Brugge,Brugge,51.22037355,3.230024779,131589.0,Belgium,BE,BEL,Brugge,BRUGGE,BE
660,Namur,Namur,50.47039349,4.870028034,97155.5,Belgium,BE,BEL,Namur,NAMUR,BE
661,Charleroi,Charleroi,50.42039654,4.450001992,272749.5,Belgium,BE,BEL,Charleroi,CHARLEROI,BE
662,Antwerpen,Antwerpen,51.22037355,4.415017048,689902.5,Belgium,BE,BEL,Antwerp,ANTWERPEN,BE
663,Brussels,Brussels,50.83331708,4.333316608,1381011.0,Belgium,BE,BEL,Brussels,BRUSSELS,BE
664,El Cayo,El Cayo,17.15599807,-89.06100252,13451.0,Belize,BZ,BLZ,Cayo,EL CAYO,BZ
665,Corozal,Corozal,18.39799811,-88.3880005,8724.0,Belize,BZ,BLZ,Corozal,COROZAL,BZ
666,Dangriga,Dangriga,16.97003522,-88.22000045,8506.0,Belize,BZ,BLZ,Stann Creek,DANGRIGA,BZ
667,Belize City,Belize City,17.49871096,-88.18837447,62244.5,Belize,BZ,BLZ,Belize,BELIZE CITY,BZ
668,Orange Walk,Orange Walk,18.09043194,-88.5599797,18066.5,Belize,BZ,BLZ,Orange Walk,ORANGE WALK,BZ
669,Punta Gorda,Punta Gorda,16.1003467,-88.81001612,6387.0,Belize,BZ,BLZ,Toledo,PUNTA GORDA,BZ
670,Belmopan,Belmopan,17.25203351,-88.767073,14300.5,Belize,BZ,BLZ,Cayo,BELMOPAN,BZ
671,Lokossa,Lokossa,6.615000092,1.715004457,86971.0,Benin,BJ,BEN,Mono,LOKOSSA,BJ
672,Kandi,Kandi,11.13036582,2.940016641,73483.0,Benin,BJ,BEN,Alibori,KANDI,BJ
673,Ouidah,Ouidah,6.360372741,2.089991006,83503.0,Benin,BJ,BEN,Atlantique,OUIDAH,BJ
674,Abomey,Abomey,7.190399596,1.98999711,82154.0,Benin,BJ,BEN,Zou,ABOMEY,BJ
675,Natitingou,Natitingou,10.32041526,1.389982054,65356.5,Benin,BJ,BEN,Atakora,NATITINGOU,BJ
676,Djougou,Djougou,9.700427265,1.680041869,152708.5,Benin,BJ,BEN,Donga,DJOUGOU,BJ
677,Parakou,Parakou,9.340009988,2.620036172,176303.0,Benin,BJ,BEN,Borgou,PARAKOU,BJ
678,Porto-Novo,Porto-Novo,6.483310973,2.616625528,267084.0,Benin,BJ,BEN,Ouémé,PORTONOVO,BJ
679,Cotonou,Cotonou,6.400008564,2.519990599,726292.0,Benin,BJ,BEN,Ouémé,COTONOU,BJ
680,Hamilton,Hamilton,32.29419029,-64.78393742,32910.0,Bermuda,BM,BMU,,HAMILTON,BM
681,Paro,Paro,27.3833011,89.51670065,15000.0,Bhutan,BT,BTN,Thimphu,PARO,BT
682,Punakha,Punakha,27.63330305,89.83330266,5000.0,Bhutan,BT,BTN,Punakha,PUNAKHA,BT
683,Wangdue Prodrang,Wangdue Prodrang,27.43329603,89.91669667,5000.0,Bhutan,BT,BTN,Wangdi Phodrang,WANGDUE PRODRANG,BT
684,Thimphu,Thimphu,27.47298586,89.63901404,88930.5,Bhutan,BT,BTN,Thimphu,THIMPHU,BT
685,Punata,Punata,-17.55000242,-65.83997115,20758.5,Bolivia,BO,BOL,Cochabamba,PUNATA,BO
686,Cliza,Cliza,-17.58999998,-65.9299915,12235.0,Bolivia,BO,BOL,Cochabamba,CLIZA,BO
687,Quillacollo,Quillacollo,-17.39998574,-66.27999597,227052.0,Bolivia,BO,BOL,Cochabamba,QUILLACOLLO,BO
688,Puerto Villarroel,Puerto Villarroel,-16.87004393,-64.78001001,1778.0,Bolivia,BO,BOL,Cochabamba,PUERTO VILLARROEL,BO
689,Tarabuco,Tarabuco,-19.18003213,-64.91994979,2364.0,Bolivia,BO,BOL,Chuquisaca,TARABUCO,BO
690,Guayaramerin,Guayaramerin,-10.82999917,-65.4099974,36008.0,Bolivia,BO,BOL,El Beni,GUAYARAMERIN,BO
691,Santa Ana,Santa Ana,-13.7600012,-65.57996118,234478.0,Bolivia,BO,BOL,El Beni,SANTA ANA,BO
692,Baures,Baures,-13.58001219,-63.58005742,2422.0,Bolivia,BO,BOL,El Beni,BAURES,BO
693,Sica Sica,Sica Sica,-17.33001585,-67.72998499,1006.0,Bolivia,BO,BOL,La Paz,SICA SICA,BO
694,Rurrenabaque,Rurrenabaque,-14.46001015,-67.55999536,11749.0,Bolivia,BO,BOL,La Paz,RURRENABAQUE,BO
695,Sorata,Sorata,-15.79000649,-68.66005742,2190.0,Bolivia,BO,BOL,La Paz,SORATA,BO
696,Achacachi,Achacachi,-16.08332192,-68.66656865,8447.0,Bolivia,BO,BOL,La Paz,ACHACACHI,BO
697,Viacha,Viacha,-16.65000568,-68.2999502,34776.0,Bolivia,BO,BOL,La Paz,VIACHA,BO
698,Quime,Quime,-16.98001137,-67.22001612,3224.5,Bolivia,BO,BOL,La Paz,QUIME,BO
699,Llallagua,Llallagua,-18.42002684,-66.63999984,28069.0,Bolivia,BO,BOL,Potosí,LLALLAGUA,BO
700,Uncia,Uncia,-18.46999795,-66.57002995,4723.0,Bolivia,BO,BOL,Potosí,UNCIA,BO
701,Uyuni,Uyuni,-20.46000568,-66.82998824,11616.0,Bolivia,BO,BOL,Potosí,UYUNI,BO
702,Villa Martin,Villa Martin,-20.76655027,-67.7833409,10.0,Bolivia,BO,BOL,Potosí,VILLA MARTIN,BO
703,Betanzos,Betanzos,-19.55995726,-65.45002079,4629.5,Bolivia,BO,BOL,Potosí,BETANZOS,BO
704,Portachuelo,Portachuelo,-17.36003986,-63.40001673,9982.0,Bolivia,BO,BOL,Santa Cruz,PORTACHUELO,BO
705,Samaipata,Samaipata,-18.18004148,-63.77001998,2926.0,Bolivia,BO,BOL,Santa Cruz,SAMAIPATA,BO
706,Cuevo,Cuevo,-20.45003213,-63.52998295,953.0,Bolivia,BO,BOL,Santa Cruz,CUEVO,BO
707,San Carlos,San Carlos,-17.39998574,-63.72999658,5266.5,Bolivia,BO,BOL,Santa Cruz,SAN CARLOS,BO
708,San Lorenzo,San Lorenzo,-21.47994342,-64.77001062,3000.0,Bolivia,BO,BOL,Tarija,SAN LORENZO,BO
709,Entre Rios,Entre Rios,-21.53001788,-64.18999435,2685.0,Bolivia,BO,BOL,Tarija,ENTRE RIOS,BO
710,Aiquile,Aiquile,-18.18954995,-65.18001144,5844.0,Bolivia,BO,BOL,Cochabamba,AIQUILE,BO
711,Padilla,Padilla,-19.29961139,-64.30996118,2276.5,Bolivia,BO,BOL,Chuquisaca,PADILLA,BO
712,Camargo,Camargo,-20.63958128,-65.20998377,4715.0,Bolivia,BO,BOL,Chuquisaca,CAMARGO,BO
713,Reyes,Reyes,-14.30958006,-67.37000696,7376.0,Bolivia,BO,BOL,El Beni,REYES,BO
714,San Borja,San Borja,-14.81962645,-66.84996118,19640.0,Bolivia,BO,BOL,El Beni,SAN BORJA,BO
715,Magdalena,Magdalena,-13.2600834,-64.05276758,3445.0,Bolivia,BO,BOL,El Beni,MAGDALENA,BO
716,San Ramon,San Ramon,-13.28959064,-64.70998845,5439.5,Bolivia,BO,BOL,El Beni,SAN RAMON,BO
717,Puerto Heath,Puerto Heath,-12.49961302,-68.66656865,10.0,Bolivia,BO,BOL,La Paz,PUERTO HEATH,BO
718,Charana,Charana,-17.5996118,-69.46659733,197.0,Bolivia,BO,BOL,La Paz,CHARANA,BO
719,Puerto Acosta,Puerto Acosta,-15.49958494,-69.16666732,1123.0,Bolivia,BO,BOL,La Paz,PUERTO ACOSTA,BO
720,Apolo,Apolo,-14.71958087,-68.41999455,4189.0,Bolivia,BO,BOL,La Paz,APOLO,BO
721,Coroico,Coroico,-16.18962034,-67.72001144,2361.0,Bolivia,BO,BOL,La Paz,COROICO,BO
722,Coro Coro,Coro Coro,-17.1696122,-68.44996688,1884.0,Bolivia,BO,BOL,La Paz,CORO CORO,BO
723,Sabaya,Sabaya,-19.01626951,-68.38327844,573.0,Bolivia,BO,BOL,Oruro,SABAYA,BO
724,Challapata,Challapata,-18.89958413,-66.77999129,8565.0,Bolivia,BO,BOL,Oruro,CHALLAPATA,BO
725,Llica,Llica,-19.84960366,-68.25003076,553.0,Bolivia,BO,BOL,Potosí,LLICA,BO
726,Potosi,Potosi,-19.56956907,-65.75002832,160576.0,Bolivia,BO,BOL,Potosí,POTOSI,BO
727,Villazon,Villazon,-22.07959674,-65.5999858,33734.0,Bolivia,BO,BOL,Potosí,VILLAZON,BO
728,Tupiza,Tupiza,-21.43958413,-65.72000431,25499.5,Bolivia,BO,BOL,Potosí,TUPIZA,BO
729,Montero,Montero,-17.34960122,-63.26002527,83821.0,Bolivia,BO,BOL,Santa Cruz,MONTERO,BO
730,Piso Firme,Piso Firme,-13.68295164,-61.86662195,72.0,Bolivia,BO,BOL,Santa Cruz,PISO FIRME,BO
731,Robore,Robore,-18.3295414,-59.75998051,9959.0,Bolivia,BO,BOL,Santa Cruz,ROBORE,BO
732,Puerto Quijarro,Puerto Quijarro,-17.77960081,-57.77002446,10392.0,Bolivia,BO,BOL,Santa Cruz,PUERTO QUIJARRO,BO
733,San Ignacio,San Ignacio,-16.36960936,-60.96001062,24480.0,Bolivia,BO,BOL,Santa Cruz,SAN IGNACIO,BO
734,Ascension,Ascension,-15.69957273,-63.07998458,12085.0,Bolivia,BO,BOL,Santa Cruz,ASCENSION,BO
735,San Javier,San Javier,-16.28961424,-62.50001998,4210.0,Bolivia,BO,BOL,Santa Cruz,SAN JAVIER,BO
736,San Rafael,San Rafael,-16.77950682,-60.6799502,1201.0,Bolivia,BO,BOL,Santa Cruz,SAN RAFAEL,BO
737,Vallegrande,Vallegrande,-18.48958331,-64.10999923,6857.5,Bolivia,BO,BOL,Santa Cruz,VALLEGRANDE,BO
738,Puerto Suarez,Puerto Suarez,-18.94955524,-57.8499679,17273.0,Bolivia,BO,BOL,Santa Cruz,PUERTO SUAREZ,BO
739,Charagua,Charagua,-19.79958087,-63.2199502,3025.0,Bolivia,BO,BOL,Santa Cruz,CHARAGUA,BO
740,Villamontes,Villamontes,-21.24956989,-63.50001062,18761.0,Bolivia,BO,BOL,Tarija,VILLAMONTES,BO
741,Bermejo,Bermejo,-22.72958291,-64.34998458,36544.0,Bolivia,BO,BOL,Tarija,BERMEJO,BO
742,Cochabamba,Cochabamba,-17.41001097,-66.16997685,804138.0,Bolivia,BO,BOL,Cochabamba,COCHABAMBA,BO
743,Oruro,Oruro,-17.97995034,-67.12999577,227592.5,Bolivia,BO,BOL,Oruro,ORURO,BO
744,Camiri,Camiri,-20.05000486,-63.51998356,19212.5,Bolivia,BO,BOL,Santa Cruz,CAMIRI,BO
745,Cobija,Cobija,-11.03334593,-68.73330876,35511.0,Bolivia,BO,BOL,Pando,COBIJA,BO
746,San Matias,San Matias,-16.35999754,-58.42001062,6352.0,Bolivia,BO,BOL,Santa Cruz,SAN MATIAS,BO
747,San José,San Jose,-17.85003579,-60.77999577,9211.0,Bolivia,BO,BOL,Santa Cruz,SAN JOSE,BO
748,Trinidad,Trinidad,-14.83337238,-64.89997685,69333.5,Bolivia,BO,BOL,El Beni,TRINIDAD,BO
749,Tarija,Tarija,-21.51668537,-64.749986,155513.0,Bolivia,BO,BOL,Tarija,TARIJA,BO
750,Sucre,Sucre,-19.04097085,-65.25951563,223287.0,Bolivia,BO,BOL,Chuquisaca,SUCRE,BO
751,Riberalta,Riberalta,-10.98301308,-66.10000696,74014.0,Bolivia,BO,BOL,El Beni,RIBERALTA,BO
752,La Paz,La Paz,-16.49797361,-68.14998519,1201399.5,Bolivia,BO,BOL,La Paz,LA PAZ,BO
753,Santa Cruz,Santa Cruz,-17.75391762,-63.22599634,1859530.5,Bolivia,BO,BOL,Santa Cruz,SANTA CRUZ,BO
754,Zenica,Zenica,44.21997398,17.91998083,151388.0,Bosnia and Herzegovina,BA,BIH,Zenica-Doboj,ZENICA,BA
755,Mostar,Mostar,43.35049217,17.82003861,133792.5,Bosnia and Herzegovina,BA,BIH,Herzegovina-Neretva,MOSTAR,BA
756,Tuzla,Tuzla,44.5504706,18.6800378,143410.0,Bosnia and Herzegovina,BA,BIH,Tuzla,TUZLA,BA
757,Prijedor,Prijedor,44.98039268,16.70000362,70602.5,Bosnia and Herzegovina,BA,BIH,Serbian Republic,PRIJEDOR,BA
758,Banja Luka,Banja Luka,44.78040489,17.17997432,221422.0,Bosnia and Herzegovina,BA,BIH,Serbian Republic,BANJA LUKA,BA
759,Sarajevo,Sarajevo,43.8500224,18.38300167,662816.5,Bosnia and Herzegovina,BA,BIH,Sarajevo,SARAJEVO,BA
760,Mochudi,Mochudi,-24.377004,26.15200256,39700.0,Botswana,BW,BWA,Kgatleng,MOCHUDI,BW
761,Ghanzi,Ghanzi,-21.69961994,21.63996049,6306.0,Botswana,BW,BWA,Ghanzi,GHANZI,BW
762,Lokhwabe,Lokhwabe,-24.16959837,21.83002641,1473.0,Botswana,BW,BWA,Kgalagadi,LOKHWABE,BW
763,Lehututu,Lehututu,-23.96961058,21.87002397,1942.0,Botswana,BW,BWA,Kgalagadi,LEHUTUTU,BW
764,Tshabong,Tshabong,-26.00948606,22.40001745,9679.0,Botswana,BW,BWA,Kgalagadi,TSHABONG,BW
765,Tsau,Tsau,-20.15961058,22.45996212,1409.0,Botswana,BW,BWA,North-West,TSAU,BW
766,Nokaneng,Nokaneng,-19.66961465,22.26999955,1763.0,Botswana,BW,BWA,North-West,NOKANENG,BW
767,Mohembo,Mohembo,-18.29956907,21.8000024,757.0,Botswana,BW,BWA,North-West,MOHEMBO,BW
768,Maun,Maun,-19.98959511,23.42000688,47059.0,Botswana,BW,BWA,North-West,MAUN,BW
769,Kasane,Kasane,-17.80957314,25.15003048,7774.5,Botswana,BW,BWA,North-West,KASANE,BW
770,Nata,Nata,-20.20947833,26.19001868,2492.5,Botswana,BW,BWA,Central,NATA,BW
771,Mopipi,Mopipi,-21.17954832,24.88002112,3301.0,Botswana,BW,BWA,Central,MOPIPI,BW
772,Palapye,Palapye,-22.55961912,27.13001298,27179.0,Botswana,BW,BWA,Central,PALAPYE,BW
773,Lobatse,Lobatse,-25.2196118,25.68002397,50343.5,Botswana,BW,BWA,South-East,LOBATSE,BW
774,Kanye,Kanye,-24.96960122,25.33999304,45773.5,Botswana,BW,BWA,Southern,KANYE,BW
775,Molepolole,Molepolole,-24.3999719,25.5100085,57713.0,Botswana,BW,BWA,Kweneng,MOLEPOLOLE,BW
776,Francistown,Francistown,-21.17003986,27.50001623,89179.5,Botswana,BW,BWA,Central,FRANCISTOWN,BW
777,Mahalapye,Mahalapye,-23.09999957,26.82000606,47607.5,Botswana,BW,BWA,Central,MAHALAPYE,BW
778,Serowe,Serowe,-22.39001707,26.71003861,47996.0,Botswana,BW,BWA,Central,SEROWE,BW
779,Gaborone,Gaborone,-24.64631346,25.91194779,183827.0,Botswana,BW,BWA,South-East,GABORONE,BW
780,Grajau,Grajau,-5.809995505,-46.14998438,30217.0,Brazil,BR,BRA,Maranhão,GRAJAU,BR
781,Presidente Dutra,Presidente Dutra,-5.250029685,-44.51998051,30330.0,Brazil,BR,BRA,Maranhão,PRESIDENTE DUTRA,BR
782,Itapecuru Mirim,Itapecuru Mirim,-3.400013409,-44.36001611,22347.0,Brazil,BR,BRA,Maranhão,ITAPECURU MIRIM,BR
783,Sao Jose de Ribamar,Sao Jose de Ribamar,-2.549987774,-44.06998214,41521.0,Brazil,BR,BRA,Maranhão,SAO JOSE DE RIBAMAR,BR
784,Santa Ines,Santa Ines,-3.659997539,-45.39003076,58511.5,Brazil,BR,BRA,Maranhão,SANTA INES,BR
785,Rosario,Rosario,-2.940041485,-44.26002222,6798.0,Brazil,BR,BRA,Maranhão,ROSARIO,BR
786,Timon,Timon,-5.114999167,-42.84496647,203157.0,Brazil,BR,BRA,Maranhão,TIMON,BR
787,Capanema,Capanema,-1.190019105,-47.17999903,45831.0,Brazil,BR,BRA,Pará,CAPANEMA,BR
788,Portel,Portel,-1.949972718,-50.81998356,10855.0,Brazil,BR,BRA,Pará,PORTEL,BR
789,Itupiranga,Itupiranga,-5.120011781,-49.30002466,21301.0,Brazil,BR,BRA,Pará,ITUPIRANGA,BR
790,Pimenta Bueno,Pimenta Bueno,-11.64002724,-61.20999536,25762.0,Brazil,BR,BRA,Rondônia,PIMENTA BUENO,BR
791,Ponta Pora,Ponta Pora,-22.53000853,-55.7299681,75047.0,Brazil,BR,BRA,Mato Grosso do Sul,PONTA PORA,BR
792,Maracaju,Maracaju,-21.610013,-55.18002751,18156.0,Brazil,BR,BRA,Mato Grosso do Sul,MARACAJU,BR
793,Jardim,Jardim,-21.47994342,-56.15001998,21252.5,Brazil,BR,BRA,Mato Grosso do Sul,JARDIM,BR
794,Tres Lagoas,Tres Lagoas,-20.79001137,-51.72000615,64217.5,Brazil,BR,BRA,Mato Grosso do Sul,TRES LAGOAS,BR
795,Guanhaes,Guanhaes,-18.78000486,-42.95002466,16761.5,Brazil,BR,BRA,Minas Gerais,GUANHAES,BR
796,Leopoldina,Leopoldina,-21.53001788,-42.64004358,37412.0,Brazil,BR,BRA,Minas Gerais,LEOPOLDINA,BR
797,Nova Lima,Nova Lima,-19.98003497,-43.8500214,60413.5,Brazil,BR,BRA,Minas Gerais,NOVA LIMA,BR
798,Pouso Alegre,Pouso Alegre,-22.22000161,-45.94002303,102517.5,Brazil,BR,BRA,Minas Gerais,POUSO ALEGRE,BR
799,Itauna,Itauna,-20.06003009,-44.57002914,70233.0,Brazil,BR,BRA,Minas Gerais,ITAUNA,BR
800,Caratinga,Caratinga,-19.79002073,-42.13999658,47517.5,Brazil,BR,BRA,Minas Gerais,CARATINGA,BR
801,Diamantina,Diamantina,-18.23998615,-43.60998438,25184.5,Brazil,BR,BRA,Minas Gerais,DIAMANTINA,BR
802,Nanuque,Nanuque,-17.83995888,-40.35002832,27210.5,Brazil,BR,BRA,Minas Gerais,NANUQUE,BR
803,Barbacena,Barbacena,-21.22001097,-43.77000045,101628.5,Brazil,BR,BRA,Minas Gerais,BARBACENA,BR
804,Pocos de Caldas,Pocos de Caldas,-21.78002846,-46.56998458,125498.5,Brazil,BR,BRA,Minas Gerais,POCOS DE CALDAS,BR
805,Guaxupe,Guaxupe,-21.29003253,-46.7099502,43379.5,Brazil,BR,BRA,Minas Gerais,GUAXUPE,BR
806,Sao Joao del Rei,Sao Joao del Rei,-21.1300423,-44.24999699,68731.5,Brazil,BR,BRA,Minas Gerais,SAO JOAO DEL REI,BR
807,Muriae,Muriae,-21.1300423,-42.38998132,76728.5,Brazil,BR,BRA,Minas Gerais,MURIAE,BR
808,Passos,Passos,-20.71001626,-46.60998214,85136.5,Brazil,BR,BRA,Minas Gerais,PASSOS,BR
809,Conselheiro Lafaiete,Conselheiro Lafaiete,-20.6700187,-43.78999923,102926.0,Brazil,BR,BRA,Minas Gerais,CONSELHEIRO LAFAIETE,BR
810,Formiga,Formiga,-20.46000568,-45.43002832,46076.5,Brazil,BR,BRA,Minas Gerais,FORMIGA,BR
811,Frutal,Frutal,-20.03000608,-48.94002079,26797.0,Brazil,BR,BRA,Minas Gerais,FRUTAL,BR
812,Iturama,Iturama,-19.72997272,-50.2000214,21048.5,Brazil,BR,BRA,Minas Gerais,ITURAMA,BR
813,Ituiutaba,Ituiutaba,-18.97001911,-49.45998906,63978.0,Brazil,BR,BRA,Minas Gerais,ITUIUTABA,BR
814,Araguari,Araguari,-18.64001341,-48.19998845,79910.5,Brazil,BR,BRA,Minas Gerais,ARAGUARI,BR
815,Almenara,Almenara,-16.17003497,-40.70000696,22173.5,Brazil,BR,BRA,Minas Gerais,ALMENARA,BR
816,Varzea Grande,Varzea Grande,-15.65001504,-56.14002059,242088.0,Brazil,BR,BRA,Mato Grosso,VARZEA GRANDE,BR
817,Cáceres,Caceres,-16.0500423,-57.51001449,85274.0,Brazil,BR,BRA,Mato Grosso,CACERES,BR
818,Santana do Livramento,Santana do Livramento,-30.88004148,-55.53000615,87312.0,Brazil,BR,BRA,Rio Grande do Sul,SANTANA DO LIVRAMENTO,BR
819,Canoas,Canoas,-29.91999673,-51.17998743,466661.0,Brazil,BR,BRA,Rio Grande do Sul,CANOAS,BR
820,Quarai,Quarai,-30.38002033,-56.45994938,18462.0,Brazil,BR,BRA,Rio Grande do Sul,QUARAI,BR
821,Santa Vitoria do Palmar,Santa Vitoria do Palmar,-33.52003538,-53.36998295,21826.0,Brazil,BR,BRA,Rio Grande do Sul,SANTA VITORIA DO PALMAR,BR
822,Sao Lourenco do Sul,Sao Lourenco do Sul,-31.36998574,-51.98001611,21673.0,Brazil,BR,BRA,Rio Grande do Sul,SAO LOURENCO DO SUL,BR
823,Canela,Canela,-29.36003091,-50.81001001,47167.0,Brazil,BR,BRA,Rio Grande do Sul,CANELA,BR
824,Sao Gabriel,Sao Gabriel,-30.32002399,-54.32002832,41849.5,Brazil,BR,BRA,Rio Grande do Sul,SAO GABRIEL,BR
825,Rosario do Sul,Rosario do Sul,-30.25000242,-54.92001754,28596.5,Brazil,BR,BRA,Rio Grande do Sul,ROSARIO DO SUL,BR
826,Cachoeira do Sul,Cachoeira do Sul,-30.02996417,-52.90998519,61871.0,Brazil,BR,BRA,Rio Grande do Sul,CACHOEIRA DO SUL,BR
827,Osorio,Osorio,-29.87999917,-50.26999129,30882.0,Brazil,BR,BRA,Rio Grande do Sul,OSORIO,BR
828,Santa Cruz do Sul,Santa Cruz do Sul,-29.71003538,-52.44003972,109869.0,Brazil,BR,BRA,Rio Grande do Sul,SANTA CRUZ DO SUL,BR
829,Sao Luiz Gonzaga,Sao Luiz Gonzaga,-28.41001137,-54.95998926,27798.5,Brazil,BR,BRA,Rio Grande do Sul,SAO LUIZ GONZAGA,BR
830,Santo Angelo,Santo Angelo,-28.30004393,-54.28003076,65013.0,Brazil,BR,BRA,Rio Grande do Sul,SANTO ANGELO,BR
831,Carazinho,Carazinho,-28.2900187,-52.80004358,49145.0,Brazil,BR,BRA,Rio Grande do Sul,CARAZINHO,BR
832,Erechim,Erechim,-27.63000731,-52.26999841,85365.5,Brazil,BR,BRA,Rio Grande do Sul,ERECHIM,BR
833,Guaira,Guaira,-24.08996499,-54.2699797,28897.5,Brazil,BR,BRA,Paraná,GUAIRA,BR
834,Palmas,Palmas,-26.47999998,-51.99998906,29794.5,Brazil,BR,BRA,Paraná,PALMAS,BR
835,Arapongas,Arapongas,-23.41000649,-51.43004968,91203.5,Brazil,BR,BRA,Paraná,ARAPONGAS,BR
836,Paranagua,Paranagua,-25.52787556,-48.53445345,135071.0,Brazil,BR,BRA,Paraná,PARANAGUA,BR
837,Sao Jose dos Pinhais,Sao Jose dos Pinhais,-25.57002968,-49.18000615,472180.0,Brazil,BR,BRA,Paraná,SAO JOSE DOS PINHAIS,BR
838,Guarapuava,Guarapuava,-25.38001544,-51.48002079,123381.5,Brazil,BR,BRA,Paraná,GUARAPUAVA,BR
839,Rio Negro,Rio Negro,-26.10002317,-49.79002059,44301.5,Brazil,BR,BRA,Paraná,RIO NEGRO,BR
840,Apucarana,Apucarana,-23.54999795,-51.4700214,102577.0,Brazil,BR,BRA,Paraná,APUCARANA,BR
841,Lapa,Lapa,-25.76004393,-49.72999841,19934.5,Brazil,BR,BRA,Paraná,LAPA,BR
842,Irati,Irati,-25.47003579,-50.65996749,41602.0,Brazil,BR,BRA,Paraná,IRATI,BR
843,Castro,Castro,-24.79002562,-50.00998132,38417.5,Brazil,BR,BRA,Paraná,CASTRO,BR
844,Telemaco Borba,Telemaco Borba,-24.32995034,-50.61999577,53793.5,Brazil,BR,BRA,Paraná,TELEMACO BORBA,BR
845,Jacarezinho,Jacarezinho,-23.15994424,-49.97998316,33551.0,Brazil,BR,BRA,Paraná,JACAREZINHO,BR
846,Concordia,Concordia,-27.23003172,-52.03001306,46124.5,Brazil,BR,BRA,Santa Catarina,CONCORDIA,BR
847,Blumenau,Blumenau,-26.9200248,-49.0899858,286326.0,Brazil,BR,BRA,Santa Catarina,BLUMENAU,BR
848,Brusque,Brusque,-27.12998615,-48.9300214,81163.5,Brazil,BR,BRA,Santa Catarina,BRUSQUE,BR
849,Ararangua,Ararangua,-28.94000486,-49.49998661,42198.5,Brazil,BR,BRA,Santa Catarina,ARARANGUA,BR
850,Jaragua do Sul,Jaragua do Sul,-26.47999998,-49.09998519,128803.5,Brazil,BR,BRA,Santa Catarina,JARAGUA DO SUL,BR
851,Tubarao,Tubarao,-28.48003294,-49.02001591,79760.0,Brazil,BR,BRA,Santa Catarina,TUBARAO,BR
852,Laguna,Laguna,-28.48003294,-48.77997888,32532.0,Brazil,BR,BRA,Santa Catarina,LAGUNA,BR
853,Joacaba,Joacaba,-27.17003538,-51.4999679,31196.0,Brazil,BR,BRA,Santa Catarina,JOACABA,BR
854,Cacador,Cacador,-26.77000812,-51.02002303,57155.5,Brazil,BR,BRA,Santa Catarina,CACADOR,BR
855,Canoinhas,Canoinhas,-26.17996662,-50.4000092,40180.0,Brazil,BR,BRA,Santa Catarina,CANOINHAS,BR
856,Camocim,Camocim,-2.89999225,-40.85002364,27794.5,Brazil,BR,BRA,Ceará,CAMOCIM,BR
857,Russas,Russas,-4.940022767,-37.97999211,33613.5,Brazil,BR,BRA,Ceará,RUSSAS,BR
858,Sobral,Sobral,-3.690021547,-40.35002832,148439.5,Brazil,BR,BRA,Ceará,SOBRAL,BR
859,Iguatu,Iguatu,-6.359987774,-39.29998906,56638.0,Brazil,BR,BRA,Ceará,IGUATU,BR
860,Quixada,Quixada,-4.969995098,-39.02000615,30723.5,Brazil,BR,BRA,Ceará,QUIXADA,BR
861,Caninde,Caninde,-4.35003294,-39.30998845,32085.0,Brazil,BR,BRA,Ceará,CANINDE,BR
862,Campo Maior,Campo Maior,-4.820030091,-42.18001998,24089.5,Brazil,BR,BRA,Piauí,CAMPO MAIOR,BR
863,Barras,Barras,-4.250039043,-42.29998682,11951.5,Brazil,BR,BRA,Piauí,BARRAS,BR
864,Rio Largo,Rio Largo,-9.48000405,-35.83996769,110966.0,Brazil,BR,BRA,Alagoas,RIO LARGO,BR
865,Palmeira dos Indios,Palmeira dos Indios,-9.416597067,-36.61663863,41095.0,Brazil,BR,BRA,Alagoas,PALMEIRA DOS INDIOS,BR
866,Santa Cruz Cabralia,Santa Cruz Cabralia,-16.28000242,-39.0299797,9980.5,Brazil,BR,BRA,Bahia,SANTA CRUZ CABRALIA,BR
867,Paulo Afonso,Paulo Afonso,-9.330659161,-38.26565943,85350.0,Brazil,BR,BRA,Bahia,PAULO AFONSO,BR
868,Brumado,Brumado,-14.20999957,-41.67002527,29300.0,Brazil,BR,BRA,Bahia,BRUMADO,BR
869,Jaguaquara,Jaguaquara,-13.5299894,-39.96999984,30554.5,Brazil,BR,BRA,Bahia,JAGUAQUARA,BR
870,Itapetinga,Itapetinga,-15.24998777,-40.24998275,43224.0,Brazil,BR,BRA,Bahia,ITAPETINGA,BR
871,Ubaitaba,Ubaitaba,-14.30001992,-39.33001306,27411.5,Brazil,BR,BRA,Bahia,UBAITABA,BR
872,Cachoeiro de Itapemirim,Cachoeiro de Itapemirim,-20.85000771,-41.12998071,174808.5,Brazil,BR,BRA,Espírito Santo,CACHOEIRO DE ITAPEMIRIM,BR
873,Barra Mansa,Barra Mansa,-22.56003253,-44.1699502,166719.0,Brazil,BR,BRA,Rio de Janeiro,BARRA MANSA,BR
874,Nova Iguacu,Nova Iguacu,-22.74002155,-43.46996708,844583.0,Brazil,BR,BRA,Rio de Janeiro,NOVA IGUACU,BR
875,Duque de Caxias,Duque de Caxias,-22.76999388,-43.30997685,842890.0,Brazil,BR,BRA,Rio de Janeiro,DUQUE DE CAXIAS,BR
876,Niteroi,Niteroi,-22.90001178,-43.09998967,993920.0,Brazil,BR,BRA,Rio de Janeiro,NITEROI,BR
877,Cabo Frio,Cabo Frio,-22.88998655,-42.03997685,184980.0,Brazil,BR,BRA,Rio de Janeiro,CABO FRIO,BR
878,Macae,Macae,-22.37999184,-41.78999211,133083.0,Brazil,BR,BRA,Rio de Janeiro,MACAE,BR
879,Miracema,Miracema,-21.41002521,-42.19996708,22564.5,Brazil,BR,BRA,Rio de Janeiro,MIRACEMA,BR
880,Apodi,Apodi,-5.650005271,-37.80000309,8586.0,Brazil,BR,BRA,Rio Grande do Norte,APODI,BR
881,Santa Cruz,Santa Cruz,-6.219996319,-36.02998194,22003.5,Brazil,BR,BRA,Rio Grande do Norte,SANTA CRUZ,BR
882,Morrinhos,Morrinhos,-17.73004311,-49.10998458,27841.0,Brazil,BR,BRA,Goiás,MORRINHOS,BR
883,Ceres,Ceres,-15.30331785,-49.60519983,18658.5,Brazil,BR,BRA,Goiás,CERES,BR
884,Catalao,Catalao,-18.18004148,-47.9500037,53646.5,Brazil,BR,BRA,Goiás,CATALAO,BR
885,Cristalina,Cristalina,-16.76999835,-47.61002446,25627.5,Brazil,BR,BRA,Goiás,CRISTALINA,BR
886,Trindade,Trindade,-16.65000568,-49.49998661,93113.0,Brazil,BR,BRA,Goiás,TRINDADE,BR
887,Ipora,Ipora,-16.45001788,-51.12999048,23354.0,Brazil,BR,BRA,Goiás,IPORA,BR
888,Inhumas,Inhumas,-16.35999754,-49.49998661,36122.0,Brazil,BR,BRA,Goiás,INHUMAS,BR
889,Itaberai,Itaberai,-16.01996662,-49.80996769,18710.5,Brazil,BR,BRA,Goiás,ITABERAI,BR
890,Santo Andre,Santo Andre,-23.65283405,-46.52781661,662373.0,Brazil,BR,BRA,São Paulo,SANTO ANDRE,BR
891,Pindamonhangaba,Pindamonhangaba,-22.91995888,-45.47002588,123985.0,Brazil,BR,BRA,São Paulo,PINDAMONHANGABA,BR
892,Rio Claro,Rio Claro,-22.40996417,-47.56002751,177710.0,Brazil,BR,BRA,São Paulo,RIO CLARO,BR
893,Ourinhos,Ourinhos,-22.97003335,-49.86998987,96994.0,Brazil,BR,BRA,São Paulo,OURINHOS,BR
894,Itanhaem,Itanhaem,-24.17998533,-46.80002222,82722.0,Brazil,BR,BRA,São Paulo,ITANHAEM,BR
895,Jaboticabal,Jaboticabal,-21.25003497,-48.32998051,60780.5,Brazil,BR,BRA,São Paulo,JABOTICABAL,BR
896,Braganca Paulista,Braganca Paulista,-22.95003457,-46.5499858,126386.0,Brazil,BR,BRA,São Paulo,BRAGANCA PAULISTA,BR
897,Jundiai,Jundiai,-23.19999347,-46.8799915,413568.5,Brazil,BR,BRA,São Paulo,JUNDIAI,BR
898,Sao Jose dos Campos,Sao Jose dos Campos,-23.19999347,-45.87994918,695322.5,Brazil,BR,BRA,São Paulo,SAO JOSE DOS CAMPOS,BR
899,Guaratingueta,Guaratingueta,-22.81996499,-45.18999129,154730.0,Brazil,BR,BRA,São Paulo,GUARATINGUETA,BR
900,Pirassununga,Pirassununga,-21.99004148,-47.42998377,51698.0,Brazil,BR,BRA,São Paulo,PIRASSUNUNGA,BR
901,Americana,Americana,-22.74994342,-47.32998987,337747.0,Brazil,BR,BRA,São Paulo,AMERICANA,BR
902,Piracicaba,Piracicaba,-22.70999754,-47.63999679,329530.0,Brazil,BR,BRA,São Paulo,PIRACICABA,BR
903,Sao Joao da Boa Vista,Sao Joao da Boa Vista,-21.98001626,-46.78999699,68666.0,Brazil,BR,BRA,São Paulo,SAO JOAO DA BOA VISTA,BR
904,Sao Carlos,Sao Carlos,-22.02001382,-47.88998153,175219.0,Brazil,BR,BRA,São Paulo,SAO CARLOS,BR
905,Tupa,Tupa,-21.92999347,-50.5199502,51798.5,Brazil,BR,BRA,São Paulo,TUPA,BR
906,Penapolis,Penapolis,-21.41002521,-50.08000289,44795.0,Brazil,BR,BRA,São Paulo,PENAPOLIS,BR
907,Presidente Prudente,Presidente Prudente,-22.12000771,-51.39000045,199722.0,Brazil,BR,BRA,São Paulo,PRESIDENTE PRUDENTE,BR
908,Registro,Registro,-24.49004393,-47.83998458,49485.0,Brazil,BR,BRA,São Paulo,REGISTRO,BR
909,Tatui,Tatui,-23.35001015,-47.8600092,81936.0,Brazil,BR,BRA,São Paulo,TATUI,BR
910,Avare,Avare,-23.1100248,-48.9300214,70709.0,Brazil,BR,BRA,São Paulo,AVARE,BR
911,Garca,Garca,-22.22000161,-49.65997685,38460.0,Brazil,BR,BRA,São Paulo,GARCA,BR
912,Catanduva,Catanduva,-21.14001585,-48.97996668,105238.0,Brazil,BR,BRA,São Paulo,CATANDUVA,BR
913,Batatais,Batatais,-20.89000527,-47.58999984,44061.0,Brazil,BR,BRA,São Paulo,BATATAIS,BR
914,Barretos,Barretos,-20.55002602,-48.58001693,97562.0,Brazil,BR,BRA,São Paulo,BARRETOS,BR
915,Marilia,Marilia,-22.21002806,-49.95001083,191083.5,Brazil,BR,BRA,São Paulo,MARILIA,BR
916,Itu,Itu,-23.26004148,-47.30001754,228878.0,Brazil,BR,BRA,São Paulo,ITU,BR
917,Itapetininga,Itapetininga,-23.58999551,-48.03999821,120889.0,Brazil,BR,BRA,São Paulo,ITAPETININGA,BR
918,Jaboatao,Jaboatao,-8.110010153,-35.02004358,681214.0,Brazil,BR,BRA,Pernambuco,JABOATAO,BR
919,Olinda,Olinda,-7.999991029,-34.8499506,659554.0,Brazil,BR,BRA,Pernambuco,OLINDA,BR
920,Cabo de Santo Agostinho,Cabo de Santo Agostinho,-8.289999167,-35.02999129,144662.0,Brazil,BR,BRA,Pernambuco,CABO DE SANTO AGOSTINHO,BR
921,Carpina,Carpina,-7.840000795,-35.26000309,118134.0,Brazil,BR,BRA,Pernambuco,CARPINA,BR
922,Arcoverde,Arcoverde,-8.420017071,-37.06999597,53066.0,Brazil,BR,BRA,Pernambuco,ARCOVERDE,BR
923,Manacapuru,Manacapuru,-3.289580873,-60.6199797,55780.5,Brazil,BR,BRA,Amazonas,MANACAPURU,BR
924,Maues,Maues,-3.389626446,-57.72002751,27518.0,Brazil,BR,BRA,Amazonas,MAUES,BR
925,Pedreiras,Pedreiras,-4.569606101,-44.67002303,13638.0,Brazil,BR,BRA,Maranhão,PEDREIRAS,BR
926,Codo,Codo,-4.479585756,-43.8799679,83288.0,Brazil,BR,BRA,Maranhão,CODO,BR
927,Coroata,Coroata,-4.12958128,-44.15000309,34129.0,Brazil,BR,BRA,Maranhão,COROATA,BR
928,Chapadinha,Chapadinha,-3.739527569,-43.35999964,29807.5,Brazil,BR,BRA,Maranhão,CHAPADINHA,BR
929,Pinheiro,Pinheiro,-2.519602032,-45.0899974,24912.0,Brazil,BR,BRA,Maranhão,PINHEIRO,BR
930,Barra do Corda,Barra do Corda,-5.509600404,-45.25996118,48901.0,Brazil,BR,BRA,Maranhão,BARRA DO CORDA,BR
931,Viana,Viana,-3.209585756,-45.00000289,15808.5,Brazil,BR,BRA,Maranhão,VIANA,BR
932,Colinas,Colinas,-6.039542217,-44.2399976,13562.5,Brazil,BR,BRA,Maranhão,COLINAS,BR
933,Viseu,Viseu,-1.196478659,-46.14001083,9992.5,Brazil,BR,BRA,Pará,VISEU,BR
934,Capitao Poco,Capitao Poco,-1.74962319,-47.09000452,32704.0,Brazil,BR,BRA,Pará,CAPITAO POCO,BR
935,Castanhal,Castanhal,-1.28959959,-47.93003076,125314.5,Brazil,BR,BRA,Pará,CASTANHAL,BR
936,Salinopolis,Salinopolis,-0.609486065,-47.33998926,32384.5,Brazil,BR,BRA,Pará,SALINOPOLIS,BR
937,Alenquer,Alenquer,-1.939585756,-54.78999964,26290.0,Brazil,BR,BRA,Pará,ALENQUER,BR
938,Oriximina,Oriximina,-1.759596742,-55.86998539,35300.0,Brazil,BR,BRA,Pará,ORIXIMINA,BR
939,Xinguara,Xinguara,-7.100614401,-49.94804712,4047.0,Brazil,BR,BRA,Pará,XINGUARA,BR
940,Jacundá,Jacunda,-4.599578431,-49.38996749,51375.0,Brazil,BR,BRA,Pará,JACUNDA,BR
941,Uruara,Uruara,-3.82959959,-54.02999435,10.0,Brazil,BR,BRA,Pará,URUARA,BR
942,Altamira,Altamira,-3.199612204,-52.21000208,56769.0,Brazil,BR,BRA,Pará,ALTAMIRA,BR
943,Paragominas,Paragominas,-2.959575176,-47.49000594,38095.5,Brazil,BR,BRA,Pará,PARAGOMINAS,BR
944,Cameta,Cameta,-2.239619121,-49.509986,22705.0,Brazil,BR,BRA,Pará,CAMETA,BR
945,Rolim de Moura,Rolim de Moura,-11.73020262,-61.78063237,24516.0,Brazil,BR,BRA,Rondônia,ROLIM DE MOURA,BR
946,Ariquemes,Ariquemes,-9.939614239,-63.07998458,58096.0,Brazil,BR,BRA,Rondônia,ARIQUEMES,BR
947,Abuna,Abuna,-9.69539142,-65.35971623,1929.0,Brazil,BR,BRA,Rondônia,ABUNA,BR
948,Tocantinopolis,Tocantinopolis,-6.319576804,-47.41998438,8750.0,Brazil,BR,BRA,Tocantins,TOCANTINOPOLIS,BR
949,Gurupi,Gurupi,-11.71960895,-49.05998763,45595.5,Brazil,BR,BRA,Tocantins,GURUPI,BR
950,Aquidauana,Aquidauana,-20.46961749,-55.79001611,38053.0,Brazil,BR,BRA,Mato Grosso do Sul,AQUIDAUANA,BR
951,Paranaiba,Paranaiba,-19.6795882,-51.20001205,25278.5,Brazil,BR,BRA,Mato Grosso do Sul,PARANAIBA,BR
952,Sete Lagoas,Sete Lagoas,-19.44962807,-44.24999699,195032.0,Brazil,BR,BRA,Minas Gerais,SETE LAGOAS,BR
953,Divinopolis,Divinopolis,-20.14953367,-44.89998316,181457.0,Brazil,BR,BRA,Minas Gerais,DIVINOPOLIS,BR
954,Ipatinga,Ipatinga,-19.4796004,-42.51999923,318320.0,Brazil,BR,BRA,Minas Gerais,IPATINGA,BR
955,Araxa,Araxa,-19.5795943,-46.95001306,70159.5,Brazil,BR,BRA,Minas Gerais,ARAXA,BR
956,Lavras,Lavras,-21.24956989,-45.0099506,70436.0,Brazil,BR,BRA,Minas Gerais,LAVRAS,BR
957,Uba,Uba,-21.11960366,-42.95002466,81698.5,Brazil,BR,BRA,Minas Gerais,UBA,BR
958,Campo Belo,Campo Belo,-20.88959186,-45.2799858,42042.5,Brazil,BR,BRA,Minas Gerais,CAMPO BELO,BR
959,Ponte Nova,Ponte Nova,-20.40962116,-42.8999502,40377.0,Brazil,BR,BRA,Minas Gerais,PONTE NOVA,BR
960,Curvelo,Curvelo,-18.75959267,-44.429986,45937.0,Brazil,BR,BRA,Minas Gerais,CURVELO,BR
961,Paracatu,Paracatu,-17.19958453,-46.86999211,51673.5,Brazil,BR,BRA,Minas Gerais,PARACATU,BR
962,Bocaiuva,Bocaiuva,-17.10961587,-43.81004968,22528.5,Brazil,BR,BRA,Minas Gerais,BOCAIUVA,BR
963,Aracuai,Aracuai,-16.85960529,-42.06994918,15301.5,Brazil,BR,BRA,Minas Gerais,ARACUAI,BR
964,Janauba,Janauba,-15.79961831,-43.30997685,38641.0,Brazil,BR,BRA,Minas Gerais,JANAUBA,BR
965,Juina,Juina,-11.3995768,-59.50002222,980.0,Brazil,BR,BRA,Mato Grosso,JUINA,BR
966,Barra do Garcas,Barra do Garcas,-15.87961342,-52.25999903,41214.5,Brazil,BR,BRA,Mato Grosso,BARRA DO GARCAS,BR
967,Pontes e Lacerda,Pontes e Lacerda,-15.21960203,-59.3499797,22694.5,Brazil,BR,BRA,Mato Grosso,PONTES E LACERDA,BR
968,Barra do Bugres,Barra do Bugres,-15.06958535,-57.19000818,22386.0,Brazil,BR,BRA,Mato Grosso,BARRA DO BUGRES,BR
969,Rondonopolis,Rondonopolis,-16.4694999,-54.63998295,146794.0,Brazil,BR,BRA,Mato Grosso,RONDONOPOLIS,BR
970,Uruguaiana,Uruguaiana,-29.76961831,-57.08998845,97736.5,Brazil,BR,BRA,Rio Grande do Sul,URUGUAIANA,BR
971,Sao Borja,Sao Borja,-28.65960854,-56.00997685,48450.5,Brazil,BR,BRA,Rio Grande do Sul,SAO BORJA,BR
972,Novo Hamburgo,Novo Hamburgo,-29.70962197,-51.13998987,557017.0,Brazil,BR,BRA,Rio Grande do Sul,NOVO HAMBURGO,BR
973,Rio Grande,Rio Grande,-32.04947915,-52.12000757,143150.0,Brazil,BR,BRA,Rio Grande do Sul,RIO GRANDE,BR
974,Camaqua,Camaqua,-30.83963051,-51.81000065,45112.5,Brazil,BR,BRA,Rio Grande do Sul,CAMAQUA,BR
975,Bento Goncalves,Bento Goncalves,-29.1694999,-51.51996668,92561.5,Brazil,BR,BRA,Rio Grande do Sul,BENTO GONCALVES,BR
976,Vacaria,Vacaria,-28.49961831,-50.94000208,47275.5,Brazil,BR,BRA,Rio Grande do Sul,VACARIA,BR
977,Ijui,Ijui,-28.38954751,-53.91994938,59047.0,Brazil,BR,BRA,Rio Grande do Sul,IJUI,BR
978,Santa Rosa,Santa Rosa,-27.86952757,-54.4599681,59119.0,Brazil,BR,BRA,Rio Grande do Sul,SANTA ROSA,BR
979,Maringa,Maringa,-23.4095414,-51.92996749,320029.5,Brazil,BR,BRA,Paraná,MARINGA,BR
980,Cascavel,Cascavel,-24.95957599,-53.46002914,229300.0,Brazil,BR,BRA,Paraná,CASCAVEL,BR
981,Campo Murao,Campo Murao,-24.04960569,-52.41998926,74173.0,Brazil,BR,BRA,Paraná,CAMPO MURAO,BR
982,Foz do Iguacu,Foz do Iguacu,-25.52346922,-54.52998967,366989.0,Brazil,BR,BRA,Paraná,FOZ DO IGUACU,BR
983,Sao Francisco do Sul,Sao Francisco do Sul,-26.23960122,-48.59998987,24354.5,Brazil,BR,BRA,Santa Catarina,SAO FRANCISCO DO SUL,BR
984,Porto Uniao,Porto Uniao,-26.23960122,-51.07996769,50242.5,Brazil,BR,BRA,Santa Catarina,PORTO UNIAO,BR
985,Itajai,Itajai,-26.89961261,-48.68001083,241421.0,Brazil,BR,BRA,Santa Catarina,ITAJAI,BR
986,Imbituba,Imbituba,-28.22960895,-48.66001205,28380.0,Brazil,BR,BRA,Santa Catarina,IMBITUBA,BR
987,Lajes,Lajes,-27.80958291,-50.30998885,139972.0,Brazil,BR,BRA,Santa Catarina,LAJES,BR
988,Granja,Granja,-3.119513734,-40.83999841,17233.0,Brazil,BR,BRA,Ceará,GRANJA,BR
989,Crato,Crato,-7.229598776,-39.42000757,164149.5,Brazil,BR,BRA,Ceará,CRATO,BR
990,Itapipoca,Itapipoca,-3.499542217,-39.58002364,31041.0,Brazil,BR,BRA,Ceará,ITAPIPOCA,BR
991,Paracuru,Paracuru,-3.399548321,-39.04003076,19860.0,Brazil,BR,BRA,Ceará,PARACURU,BR
992,Acarau,Acarau,-2.889605287,-40.11999068,21024.5,Brazil,BR,BRA,Ceará,ACARAU,BR
993,Taua,Taua,-5.999492982,-40.31003076,29188.0,Brazil,BR,BRA,Ceará,TAUA,BR
994,Crateus,Crateus,-5.165590394,-40.66600387,40338.0,Brazil,BR,BRA,Ceará,CRATEUS,BR
995,Baturite,Baturite,-4.329569073,-38.87998885,17797.5,Brazil,BR,BRA,Ceará,BATURITE,BR
996,Ipu,Ipu,-4.319595521,-40.72005742,14479.5,Brazil,BR,BRA,Ceará,IPU,BR
997,Floriano,Floriano,-6.769575176,-43.0299681,35923.0,Brazil,BR,BRA,Piauí,FLORIANO,BR
998,Piripiri,Piripiri,-4.269572735,-41.78999211,32639.0,Brazil,BR,BRA,Piauí,PIRIPIRI,BR
999,Penedo,Penedo,-10.26961994,-36.58002588,37515.5,Brazil,BR,BRA,Alagoas,PENEDO,BR
1000,Itabuna,Itabuna,-14.78960244,-39.28001611,213799.0,Brazil,BR,BRA,Bahia,ITABUNA,BR
1001,Itamaraju,Itamaraju,-17.0395943,-39.52994918,35055.0,Brazil,BR,BRA,Bahia,ITAMARAJU,BR
1002,Guanambi,Guanambi,-14.22958494,-42.78998275,45730.0,Brazil,BR,BRA,Bahia,GUANAMBI,BR
1003,Porto Seguro,Porto Seguro,-16.42960569,-39.08002832,72031.0,Brazil,BR,BRA,Bahia,PORTO SEGURO,BR
1004,Valenca,Valenca,-13.3596122,-39.08002832,56584.5,Brazil,BR,BRA,Bahia,VALENCA,BR
1005,Serrinha,Serrinha,-11.64958738,-39.01000676,52953.5,Brazil,BR,BRA,Bahia,SERRINHA,BR
1006,Tucano,Tucano,-10.96962889,-38.78999435,16199.0,Brazil,BR,BRA,Bahia,TUCANO,BR
1007,Senhor do Bonfim,Senhor do Bonfim,-10.44960895,-40.19001225,43577.0,Brazil,BR,BRA,Bahia,SENHOR DO BONFIM,BR
1008,Remanso,Remanso,-9.599583314,-42.10999841,37945.0,Brazil,BR,BRA,Bahia,REMANSO,BR
1009,Itambe,Itambe,-15.23960081,-40.62998539,15450.5,Brazil,BR,BRA,Bahia,ITAMBE,BR
1010,Bom Jesus da Lapa,Bom Jesus da Lapa,-13.2495414,-43.44002059,40691.0,Brazil,BR,BRA,Bahia,BOM JESUS DA LAPA,BR
1011,Itaberaba,Itaberaba,-12.5196118,-40.2999797,31722.0,Brazil,BR,BRA,Bahia,ITABERABA,BR
1012,Sao Mateus,Sao Mateus,-18.72962034,-39.85998071,63375.5,Brazil,BR,BRA,Espírito Santo,SAO MATEUS,BR
1013,Patos,Patos,-7.019585756,-37.29000838,85720.5,Brazil,BR,BRA,Paraíba,PATOS,BR
1014,Volta Redonda,Volta Redonda,-22.51956989,-44.09496769,352971.0,Brazil,BR,BRA,Rio de Janeiro,VOLTA REDONDA,BR
1015,Petropolis,Petropolis,-22.50949298,-43.19998356,279381.0,Brazil,BR,BRA,Rio de Janeiro,PETROPOLIS,BR
1016,Nova Cruz,Nova Cruz,-6.469593487,-35.43999211,22563.5,Brazil,BR,BRA,Rio Grande do Norte,NOVA CRUZ,BR
1017,Caico,Caico,-6.459619935,-37.10001998,42378.0,Brazil,BR,BRA,Rio Grande do Norte,CAICO,BR
1018,Acu,Acu,-5.57962197,-36.91005742,33303.0,Brazil,BR,BRA,Rio Grande do Norte,ACU,BR
1019,Estancia,Estancia,-11.26961058,-37.45002446,50690.0,Brazil,BR,BRA,Sergipe,ESTANCIA,BR
1020,Caracarai,Caracarai,1.816231505,-61.12767481,11368.0,Brazil,BR,BRA,Roraima,CARACARAI,BR
1021,Porto Santana,Porto Santana,-0.039598369,-51.17998743,68849.0,Brazil,BR,BRA,Amapá,PORTO SANTANA,BR
1022,Rio Verde,Rio Verde,-17.81959837,-50.92997685,48318.0,Brazil,BR,BRA,Goiás,RIO VERDE,BR
1023,Pires do Rio,Pires do Rio,-17.29952675,-48.27998356,21688.0,Brazil,BR,BRA,Goiás,PIRES DO RIO,BR
1024,Anapolis,Anapolis,-16.31958657,-48.9599679,278595.5,Brazil,BR,BRA,Goiás,ANAPOLIS,BR
1025,Goianesia,Goianesia,-15.30962238,-49.1300092,39217.5,Brazil,BR,BRA,Goiás,GOIANESIA,BR
1026,Niquelandia,Niquelandia,-14.46962197,-48.47002364,19785.0,Brazil,BR,BRA,Goiás,NIQUELANDIA,BR
1027,Itumbiara,Itumbiara,-18.39961465,-49.21000431,65343.5,Brazil,BR,BRA,Goiás,ITUMBIARA,BR
1028,Jatai,Jatai,-17.87959471,-51.75000431,57135.0,Brazil,BR,BRA,Goiás,JATAI,BR
1029,Mineiros,Mineiros,-17.56953611,-52.55998071,28247.0,Brazil,BR,BRA,Goiás,MINEIROS,BR
1030,Formosa,Formosa,-15.53947915,-47.33998926,62585.5,Brazil,BR,BRA,Goiás,FORMOSA,BR
1031,Sao Jose do Rio Preto,Sao Jose do Rio Preto,-20.79962319,-49.38996749,358243.5,Brazil,BR,BRA,São Paulo,SAO JOSE DO RIO PRETO,BR
1032,Limeira,Limeira,-22.54954222,-47.40001144,241071.0,Brazil,BR,BRA,São Paulo,LIMEIRA,BR
1033,Taubate,Taubate,-23.01953937,-45.55999455,327600.5,Brazil,BR,BRA,São Paulo,TAUBATE,BR
1034,Jau,Jau,-22.28960976,-48.57001754,102565.5,Brazil,BR,BRA,São Paulo,JAU,BR
1035,Assis,Assis,-22.65961302,-50.41998214,79133.0,Brazil,BR,BRA,São Paulo,ASSIS,BR
1036,Itapeva,Itapeva,-23.97958413,-48.88002446,55324.0,Brazil,BR,BRA,São Paulo,ITAPEVA,BR
1037,Botucatu,Botucatu,-22.87959959,-48.44999903,94938.5,Brazil,BR,BRA,São Paulo,BOTUCATU,BR
